,CensusId,State,County,Unemployment,Latitude,Longitude
0,1001,Alabama,Autauga,7.6,32.5791817,-86.49965460000001
1,1003,Alabama,Baldwin,7.5,30.6010744,-87.77633329999999
2,1005,Alabama,Barbour,17.6,31.8172896,-85.35496499999999
3,1007,Alabama,Bibb,8.3,32.9562798,-87.14228949999999
4,1009,Alabama,Blount,7.7,34.0145152,-86.49965460000001
5,1011,Alabama,Bullock,18.0,32.0573536,-85.7256372
6,1013,Alabama,Butler,10.9,32.0895908,-88.2219652
7,1015,Alabama,Calhoun,12.3,33.7701576,-85.80766
8,1017,Alabama,Chambers,8.9,32.9028048,-85.35496499999999
9,1019,Alabama,Cherokee,7.9,34.7570342,-87.9728143
10,1021,Alabama,Chilton,9.1,32.944392,-86.6611083
11,1023,Alabama,Choctaw,13.6,32.0716631,-88.24611829999999
12,1025,Alabama,Clarke,19.4,31.7002461,-87.77633329999999
13,1027,Alabama,Clay,9.4,33.7026013,-86.5997096
14,1029,Alabama,Cleburne,8.3,33.6261707,-85.52002399999999
15,1031,Alabama,Coffee,7.1,31.4751172,-86.0121573
16,1033,Alabama,Colbert,9.0,34.7117567,-87.89424509999999
17,1035,Alabama,Conecuh,22.6,31.501571,-86.9824288
18,1037,Alabama,Coosa,17.0,32.8897772,-86.2196937
19,1039,Alabama,Covington,11.2,31.3066438,-86.49965460000001
20,1041,Alabama,Crenshaw,9.7,31.6671872,-86.3376761
21,1043,Alabama,Cullman,7.3,34.1748208,-86.8436124
22,1045,Alabama,Dale,10.9,31.4645298,-85.684578
23,1047,Alabama,Dallas,16.4,32.2332138,-87.14228949999999
24,1049,Alabama,DeKalb,7.7,34.5211397,-85.684578
25,1051,Alabama,Elmore,8.3,32.5387448,-86.3149712
26,1053,Alabama,Escambia,15.6,31.1394734,-87.14228949999999
27,1055,Alabama,Etowah,9.0,34.0455341,-86.05296039999999
28,1057,Alabama,Fayette,10.0,33.6845539,-87.8308522
29,1059,Alabama,Franklin,9.8,32.4784706,-85.8024562
30,1061,Alabama,Geneva,11.2,31.0329572,-85.8638242
31,1063,Alabama,Greene,20.4,32.9718107,-87.9334803
32,1065,Alabama,Hale,13.3,32.7859102,-87.6186379
33,1067,Alabama,Henry,8.1,31.4469377,-85.1894045
34,1069,Alabama,Houston,8.3,34.1414925,-87.2580686
35,1071,Alabama,Jackson,10.1,31.5090521,-87.8944435
36,1073,Alabama,Jefferson,9.1,32.3859585,-87.9017188
37,1075,Alabama,Lamar,10.2,33.6923649,-88.0900762
38,1077,Alabama,Lauderdale,7.1,34.8840876,-87.658113
39,1079,Alabama,Lawrence,9.8,34.567428,-87.30161319999999
40,1081,Alabama,Lee,7.3,32.5888702,-85.39627689999999
41,1083,Alabama,Limestone,7.8,34.78000720000001,-86.9423801
42,1085,Alabama,Lowndes,13.2,32.221464,-86.6611083
43,1087,Alabama,Macon,16.9,32.3731182,-85.684578
44,1089,Alabama,Madison,8.5,34.6992579,-86.74833180000002
45,1091,Alabama,Marengo,11.4,32.2459085,-87.77633329999999
46,1093,Alabama,Marion,9.9,32.6323536,-87.3191655
47,1095,Alabama,Marshall,8.4,34.3652297,-86.3376761
48,1097,Alabama,Mobile,9.8,30.6953657,-88.0398912
49,1099,Alabama,Monroe,20.7,31.5119068,-87.460397
50,1101,Alabama,Montgomery,8.8,32.3792233,-86.3077368
51,1103,Alabama,Morgan,9.9,34.4240875,-86.86218269999999
52,1105,Alabama,Perry,11.2,32.598888,-87.30161319999999
53,1107,Alabama,Pickens,13.8,33.3339954,-88.0900762
54,1109,Alabama,Pike,10.2,31.8395163,-86.0121573
55,1111,Alabama,Randolph,10.3,32.8996333,-86.9112451
56,1113,Alabama,Russell,11.1,32.3552497,-85.1894045
57,1115,Alabama,St. Clair,8.4,33.6530112,-86.3376761
58,1117,Alabama,Shelby,5.5,33.1086539,-86.5835907
59,1119,Alabama,Sumter,16.8,32.6155551,-88.24611829999999
60,1121,Alabama,Talladega,13.8,33.4359416,-86.1058048
61,1123,Alabama,Tallapoosa,9.0,32.9201244,-85.84862360000001
62,1125,Alabama,Tuscaloosa,7.6,33.2098407,-87.56917349999999
63,1127,Alabama,Walker,11.4,33.8563605,-87.30161319999999
64,1129,Alabama,Washington,20.0,31.3422346,-88.24611829999999
65,1131,Alabama,Wilcox,20.8,32.0105439,-87.3413599
66,1133,Alabama,Winston,9.6,34.1690087,-87.3413599
67,2013,Alaska,Aleutians East Borough,2.9,55.53880059999999,-161.8988535
68,2016,Alaska,Aleutians West Census Area,2.1,52.3232697,-174.1596072
69,2020,Alaska,Anchorage Municipality,6.7,61.2180556,-149.9002778
70,2050,Alaska,Bethel Census Area,17.6,61.09344600000001,-160.8640773
71,2060,Alaska,Bristol Bay Borough,5.4,58.7578504,-156.7792687
72,2068,Alaska,Denali Borough,2.3,63.82571729999999,-149.7317835
73,2070,Alaska,Dillingham Census Area,12.5,59.80677919999999,-157.7242585
74,2090,Alaska,Fairbanks North Star Borough,7.9,64.9526102,-146.4744154
75,2100,Alaska,Haines Borough,3.0,59.1392237,-135.0
76,2105,Alaska,Hoonah-Angoon Census Area,13.1,58.31765049999999,-136.0390896
77,2110,Alaska,Juneau City and Borough,5.2,58.3019444,-134.4197221
78,2122,Alaska,Kenai Peninsula Borough,9.4,60.0858486,-151.382264
79,2130,Alaska,Ketchikan Gateway Borough,7.9,55.5103345,-131.389286
80,2150,Alaska,Kodiak Island Borough,6.3,57.53693430000001,-153.2659352
81,2158,Alaska,Kusilvak Census Area,28.6,62.1458336,-162.891919
82,2164,Alaska,Lake and Peninsula Borough,9.8,58.0458356,-156.5982286
83,2170,Alaska,Matanuska-Susitna Borough,9.8,62.2599347,-150.1729153
84,2180,Alaska,Nome Census Area,16.5,64.8329974,-164.256602
85,2185,Alaska,North Slope Borough,9.3,69.05787579999999,-152.8628274
86,2188,Alaska,Northwest Arctic Borough,21.9,67.2872981,-160.0342624
87,2195,Alaska,Petersburg Borough,8.4,56.8124267,-132.9554472
88,2198,Alaska,Prince of Wales-Hyder Census Area,13.9,55.3242244,-132.6044581
89,2220,Alaska,Sitka City and Borough,3.8,57.0530556,-135.33
90,2230,Alaska,Skagway Municipality,7.8,59.45540250000001,-135.315279
91,2240,Alaska,Southeast Fairbanks Census Area,9.4,63.9603869,-143.6296999
92,2261,Alaska,Valdez-Cordova Census Area,10.7,61.4787707,-144.1147195
93,2275,Alaska,Wrangell City and Borough,7.5,56.4708333,-132.3766666
94,2282,Alaska,Yakutat City and Borough,7.9,59.5469878,-139.7272808
95,2290,Alaska,Yukon-Koyukuk Census Area,18.2,65.8443666,-153.4302993
96,4001,Arizona,Apache,18.2,35.5313224,-109.3783206
97,4003,Arizona,Cochise,8.7,32.1139688,-109.9211756
98,4005,Arizona,Coconino,8.8,35.6647545,-111.4752851
99,4007,Arizona,Gila,12.8,33.6370567,-110.5215459
100,4009,Arizona,Graham,14.1,33.076805,-109.7591675
101,4011,Arizona,Greenlee,10.0,33.2405598,-109.2831531
102,4012,Arizona,La Paz,11.2,34.0061091,-113.9536466
103,4013,Arizona,Maricopa,7.7,33.0581063,-112.0476423
104,4015,Arizona,Mohave,13.2,35.2143346,-113.7632828
105,4017,Arizona,Navajo,19.8,36.0672173,-109.1880047
106,4019,Arizona,Pima,10.0,32.8961755,-109.8275815
107,4021,Arizona,Pinal,10.6,32.8162061,-111.2845025
108,4023,Arizona,Santa Cruz,11.3,31.5986127,-110.8076084
109,4025,Arizona,Yavapai,10.0,34.6463981,-112.4291464
110,4027,Arizona,Yuma,13.1,32.6926512,-114.6276916
111,5001,Arkansas,Arkansas,8.3,33.6087222,-91.2067794
112,5003,Arkansas,Ashley,11.8,33.1565939,-91.7538817
113,5005,Arkansas,Baxter,7.6,36.3261815,-92.38136209999999
114,5007,Arkansas,Benton,4.2,34.5645371,-92.586828
115,5009,Arkansas,Boone,8.4,36.3118662,-93.0175712
116,5011,Arkansas,Bradley,9.4,33.0981881,-93.6548983
117,5013,Arkansas,Calhoun,7.2,33.5020885,-92.539603
118,5015,Arkansas,Carroll,6.2,36.2987495,-93.5003454
119,5017,Arkansas,Chicot,11.5,33.3419551,-91.28910359999999
120,5019,Arkansas,Clark,8.4,34.0232374,-93.17796589999999
121,5021,Arkansas,Clay,9.5,36.3492244,-90.37483540000001
122,5023,Arkansas,Cleburne,10.2,35.4605769,-92.0665197
123,5025,Arkansas,Cleveland,9.7,35.4214685,-92.7096079
124,5027,Arkansas,Columbia,10.1,33.1285176,-93.17796589999999
125,5029,Arkansas,Conway,8.1,35.0886963,-92.4421011
126,5031,Arkansas,Craighead,7.5,35.8260959,-90.6773046
127,5033,Arkansas,Crawford,7.9,35.5762761,-94.315422
128,5035,Arkansas,Crittenden,9.9,35.3021443,-90.37483540000001
129,5037,Arkansas,Cross,8.6,35.2998913,-90.8294002
130,5039,Arkansas,Dallas,8.3,34.53594030000001,-94.2190985
131,5041,Arkansas,Desha,17.7,35.7361886,-91.67986189999999
132,5043,Arkansas,Drew,14.3,33.5156463,-91.7538817
133,5045,Arkansas,Faulkner,6.6,35.1035858,-92.38136209999999
134,5047,Arkansas,Franklin,11.0,36.170346,-91.7759792
135,5049,Arkansas,Fulton,7.6,33.6145649,-93.81351640000001
136,5051,Arkansas,Garland,9.2,33.3629029,-93.70990119999999
137,5053,Arkansas,Grant,9.4,34.2628015,-92.4208713
138,5055,Arkansas,Greene,9.0,36.1314931,-90.563609
139,5057,Arkansas,Hempstead,7.9,33.6530112,-93.66232389999999
140,5059,Arkansas,Hot Spring,7.6,34.5037004,-93.0551795
141,5061,Arkansas,Howard,8.5,34.1318213,-94.028678
142,5063,Arkansas,Independence,6.9,35.8174139,-91.5983959
143,5065,Arkansas,Izard,10.0,36.1610924,-91.9099238
144,5067,Arkansas,Jackson,7.9,35.6479574,-91.13530200000001
145,5069,Arkansas,Jefferson,11.2,34.3806516,-92.1640352
146,5071,Arkansas,Johnson,6.2,36.1328564,-94.16548209999999
147,5073,Arkansas,Lafayette,12.5,33.2511695,-93.62178019999999
148,5075,Arkansas,Lawrence,6.9,35.9969735,-91.13530200000001
149,5077,Arkansas,Lee,17.3,34.7712669,-90.8294002
150,5079,Arkansas,Lincoln,14.2,35.949526,-94.4235482
151,5081,Arkansas,Little River,8.8,33.6808926,-94.19234000000002
152,5083,Arkansas,Logan,8.1,35.2475011,-93.66232389999999
153,5085,Arkansas,Lonoke,5.9,34.7839795,-91.8998611
154,5087,Arkansas,Madison,7.3,35.0131472,-90.72260969999999
155,5089,Arkansas,Marion,10.9,35.2145336,-90.1964835
156,5091,Arkansas,Miller,9.6,33.3335556,-93.86553029999999
157,5093,Arkansas,Mississippi,12.0,35.8279728,-90.0746767
158,5095,Arkansas,Monroe,12.8,34.7348191,-91.10456579999999
159,5097,Arkansas,Montgomery,4.3,34.5424074,-93.66232389999999
160,5099,Arkansas,Nevada,9.5,33.6621386,-93.33889169999999
161,5101,Arkansas,Newton,4.4,35.9603994,-93.17796589999999
162,5103,Arkansas,Ouachita,8.3,33.4309213,-92.7054634
163,5105,Arkansas,Perry,6.8,35.0475869,-92.7940557
164,5107,Arkansas,Phillips,18.1,34.4611206,-90.86751339999999
165,5109,Arkansas,Pike,6.6,34.1876975,-93.66232389999999
166,5111,Arkansas,Poinsett,10.0,35.6078586,-90.6393702
167,5113,Arkansas,Polk,9.0,34.5268097,-94.15137639999999
168,5115,Arkansas,Pope,7.6,35.440627,-93.0175712
169,5117,Arkansas,Prairie,6.2,34.7636336,-91.5983959
170,5119,Arkansas,Pulaski,7.5,34.75386150000001,-92.2236667
171,5121,Arkansas,Randolph,5.4,36.3457918,-90.9820668
172,5123,Arkansas,St. Francis,11.7,36.4533933,-90.1453751
173,5125,Arkansas,Saline,5.3,34.5708215,-92.539603
174,5127,Arkansas,Scott,10.9,34.6964808,-92.0962552
175,5129,Arkansas,Searcy,5.9,35.2468204,-91.73368459999999
176,5131,Arkansas,Sebastian,6.1,35.2260397,-94.315422
177,5133,Arkansas,Sevier,9.3,34.0346222,-94.27436279999999
178,5135,Arkansas,Sharp,8.8,36.16759740000001,-91.44346900000001
179,5137,Arkansas,Stone,7.0,35.8075142,-92.2236667
180,5139,Arkansas,Union,9.7,33.1431092,-92.539603
181,5141,Arkansas,Van Buren,11.2,35.436756,-94.34826799999999
182,5143,Arkansas,Washington,6.2,33.774005,-93.68267960000001
183,5145,Arkansas,White,7.1,35.2900612,-91.7538817
184,5147,Arkansas,Woodruff,12.4,35.1215846,-91.13530200000001
185,5149,Arkansas,Yell,8.3,35.0810824,-93.33889169999999
186,6001,California,Alameda,8.3,37.7798721,-122.2821855
187,6003,California,Alpine,10.7,32.8350521,-116.7664109
188,6005,California,Amador,14.0,38.3488921,-120.7740931
189,6007,California,Butte,12.1,39.6253952,-121.5370003
190,6009,California,Calaveras,12.1,38.1960477,-120.6805037
191,6011,California,Colusa,10.4,39.2143343,-122.0094175
192,6013,California,Contra Costa,8.8,37.8534093,-121.9017954
193,6015,California,Del Norte,11.5,41.7076287,-123.9659708
194,6017,California,El Dorado,11.1,38.74263759999999,-120.4357631
195,6019,California,Fresno,13.2,36.7377981,-119.7871247
196,6021,California,Glenn,12.6,39.5218283,-122.0138651
197,6023,California,Humboldt,10.5,40.7450055,-123.8695086
198,6025,California,Imperial,17.4,32.8475528,-115.5694391
199,6027,California,Inyo,6.8,36.3091865,-117.5495846
200,6029,California,Kern,12.7,35.4937274,-118.8596804
201,6031,California,Kings,13.0,36.0988489,-119.8815203
202,6033,California,Lake,14.6,40.3718429,-122.2333825
203,6035,California,Lassen,10.9,40.5394389,-120.7120023
204,6037,California,Los Angeles,10.0,34.0522342,-118.2436849
205,6039,California,Madera,7.5,36.9613356,-120.0607176
206,6041,California,Marin,5.7,38.083403,-122.7633036
207,6043,California,Mariposa,11.6,37.4849377,-119.9662843
208,6045,California,Mendocino,12.2,39.3076744,-123.7994591
209,6047,California,Merced,16.2,37.3021632,-120.4829677
210,6049,California,Modoc,8.6,41.4565165,-120.629366
211,6051,California,Mono,13.4,37.9218608,-118.9528645
212,6053,California,Monterey,8.4,36.6002378,-121.8946761
213,6055,California,Napa,7.5,38.2975381,-122.286865
214,6057,California,Nevada,9.8,39.1346666,-121.1710389
215,6059,California,Orange,7.6,33.7879139,-117.8531007
216,6061,California,Placer,8.3,39.0915751,-120.8039474
217,6063,California,Plumas,15.2,39.99268319999999,-120.8039474
218,6065,California,Riverside,12.9,33.9806005,-117.3754942
219,6067,California,Sacramento,11.8,38.5815719,-121.4943996
220,6069,California,San Benito,12.2,36.5760883,-120.9876321
221,6071,California,San Bernardino,12.6,34.1083449,-117.2897652
222,6073,California,San Diego,8.7,32.715738,-117.1610838
223,6075,California,San Francisco,6.8,37.7749295,-122.4194155
224,6077,California,San Joaquin,13.7,36.6066162,-120.1890447
225,6079,California,San Luis Obispo,6.6,35.2827524,-120.6596156
226,6081,California,San Mateo,6.7,37.5629917,-122.3255254
227,6083,California,Santa Barbara,8.0,34.4208305,-119.6981901
228,6085,California,Santa Clara,7.7,37.3541079,-121.9552356
229,6087,California,Santa Cruz,7.6,36.9741171,-122.0307963
230,6089,California,Shasta,10.3,40.598119,-122.4907566
231,6091,California,Sierra,8.0,39.5532845,-120.2512728
232,6093,California,Siskiyou,12.7,41.7743261,-122.5770126
233,6095,California,Solano,11.4,38.3104969,-121.9017954
234,6097,California,Sonoma,8.1,38.291859,-122.4580356
235,6099,California,Stanislaus,15.2,37.5090711,-120.9876321
236,6101,California,Sutter,13.2,39.1598915,-121.7527482
237,6103,California,Tehama,13.2,40.0271015,-122.1233228
238,6105,California,Trinity,9.0,40.6329485,-123.0622553
239,6107,California,Tulare,12.0,36.2077288,-119.3473379
240,6109,California,Tuolumne,12.9,37.9627027,-120.2412999
241,6111,California,Ventura,8.6,34.2804923,-119.2945199
242,6113,California,Yolo,9.0,38.732968,-121.8072828
243,6115,California,Yuba,14.8,39.1404477,-121.6169108
244,8001,Colorado,Adams,7.9,39.8398269,-104.1930918
245,8003,Colorado,Alamosa,10.4,37.4694491,-105.8700214
246,8005,Colorado,Arapahoe,7.2,39.62031,-104.332644
247,8007,Colorado,Archuleta,8.2,37.1604318,-107.0067031
248,8009,Colorado,Baca,4.5,37.394731,-102.5298028
249,8011,Colorado,Bent,8.3,38.0036339,-103.0817903
250,8013,Colorado,Boulder,6.1,40.0149856,-105.2705456
251,8014,Colorado,Broomfield,5.5,39.9205411,-105.0866504
252,8015,Colorado,Chaffee,5.9,38.7536679,-106.2522143
253,8017,Colorado,Cheyenne,9.3,38.8002562,-102.6216211
254,8019,Colorado,Clear Creek,5.4,39.7966884,-105.042603
255,8021,Colorado,Conejos,9.7,37.0883453,-106.0197445
256,8023,Colorado,Costilla,14.0,37.2049596,-105.5005483
257,8025,Colorado,Crowley,27.0,38.1930606,-103.8560646
258,8027,Colorado,Custer,14.0,38.0615578,-105.3131185
259,8029,Colorado,Delta,11.7,38.7422062,-108.0689582
260,8031,Colorado,Denver,6.3,39.7392358,-104.990251
261,8033,Colorado,Dolores,4.6,37.4738818,-108.5045356
262,8035,Colorado,Douglas,4.1,39.2587106,-104.9388853
263,8037,Colorado,Eagle,4.4,39.6552634,-106.8286507
264,8039,Colorado,Elbert,6.7,39.2194678,-104.5371508
265,8041,Colorado,El Paso,8.4,38.9108325,-104.4723301
266,8043,Colorado,Fremont,9.2,38.5306514,-105.5005483
267,8045,Colorado,Garfield,6.9,38.5516638,-106.2922456
268,8047,Colorado,Gilpin,4.9,39.8770159,-105.4536718
269,8049,Colorado,Grand,5.7,40.0727382,-106.0640179
270,8051,Colorado,Gunnison,7.8,38.5458246,-106.9253207
271,8053,Colorado,Hinsdale,3.0,37.9316309,-107.3848831
272,8055,Colorado,Huerfano,15.0,37.6125984,-104.9388853
273,8057,Colorado,Jackson,1.5,40.6819242,-106.2522143
274,8059,Colorado,Jefferson,5.9,39.377255,-105.8005988
275,8061,Colorado,Kiowa,2.0,39.3472095,-104.4644112
276,8063,Colorado,Kit Carson,5.9,38.7611129,-102.7893667
277,8065,Colorado,Lake,5.7,40.25220729999999,-105.8230671
278,8067,Colorado,La Plata,5.2,37.2125857,-107.763621
279,8069,Colorado,Larimer,6.7,40.6955572,-105.5943388
280,8071,Colorado,Las Animas,9.2,38.0666735,-103.222708
281,8073,Colorado,Lincoln,6.3,39.0457549,-103.3587288
282,8075,Colorado,Logan,9.0,40.7056181,-102.989615
283,8077,Colorado,Mesa,8.7,39.1662458,-108.1388881
284,8079,Colorado,Mineral,1.6,37.6583677,-107.0067031
285,8081,Colorado,Moffat,5.9,37.9988882,-105.9100156
286,8083,Colorado,Montezuma,9.5,39.581098,-105.8672337
287,8085,Colorado,Montrose,10.2,38.4783198,-107.8761738
288,8087,Colorado,Morgan,6.2,40.2989226,-103.7289167
289,8089,Colorado,Otero,10.7,37.9397663,-103.6362715
290,8091,Colorado,Ouray,6.7,38.0227716,-107.6714487
291,8093,Colorado,Park,5.6,39.0897928,-105.5943388
292,8095,Colorado,Phillips,5.3,40.53713339999999,-102.3463875
293,8097,Colorado,Pitkin,7.7,38.6091612,-106.5166957
294,8099,Colorado,Prowers,9.7,37.84337560000001,-102.2547919
295,8101,Colorado,Pueblo,10.8,38.2544472,-104.6091409
296,8103,Colorado,Rio Blanco,4.2,39.9814297,-108.2377519
297,8105,Colorado,Rio Grande,8.1,37.5749508,-106.4405872
298,8107,Colorado,Routt,4.0,40.4771623,-107.1011931
299,8109,Colorado,Saguache,9.7,38.0875,-106.1419671
300,8111,Colorado,San Juan,13.8,37.7573704,-107.71625
301,8113,Colorado,San Miguel,5.8,37.9781237,-108.1428669
302,8115,Colorado,Sedgwick,6.4,40.9363799,-102.5254664
303,8117,Colorado,Summit,4.7,39.5911871,-106.0640179
304,8119,Colorado,Teller,8.2,38.86115789999999,-105.1726816
305,8121,Colorado,Washington,5.1,40.063745,-102.989615
306,8123,Colorado,Weld,6.6,40.3920718,-104.7158226
307,8125,Colorado,Yuma,2.5,40.1222084,-102.7252096
308,9001,Connecticut,Fairfield,9.0,41.1408363,-73.2612615
309,9003,Connecticut,Hartford,9.3,41.7658043,-72.6733723
310,9005,Connecticut,Litchfield,7.1,41.7472642,-73.1887165
311,9007,Connecticut,Middlesex,6.0,41.46985050000001,-72.4731529
312,9009,Connecticut,New Haven,9.5,41.308274,-72.9278835
313,9011,Connecticut,New London,8.3,41.3556539,-72.0995209
314,9013,Connecticut,Tolland,6.8,41.8714865,-72.3686931
315,9015,Connecticut,Windham,9.3,41.6998208,-72.1570219
316,10001,Delaware,Kent,8.4,39.1440612,-75.4344727
317,10003,Delaware,New Castle,7.4,39.6620397,-75.5668166
318,10005,Delaware,Sussex,8.0,38.65308410000001,-75.4344727
319,11001,District of Columbia,District of Columbia,9.6,38.9071923,-77.0368707
320,12001,Florida,Alachua,7.9,29.7938144,-82.49442260000001
321,12003,Florida,Baker,8.9,30.7971318,-86.681344
322,12005,Florida,Bay,8.6,30.1805306,-85.684578
323,12007,Florida,Bradford,12.4,29.97238179999999,-82.1713632
324,12009,Florida,Brevard,10.9,28.263933,-80.7214417
325,12011,Florida,Broward,10.0,26.190096,-80.365865
326,12013,Florida,Calhoun,10.0,30.3475302,-85.1894045
327,12015,Florida,Charlotte,10.8,26.8946009,-81.909826
328,12017,Florida,Citrus,13.1,28.8848842,-82.5185837
329,12019,Florida,Clay,10.7,29.9943564,-81.77870209999999
330,12021,Florida,Collier,7.8,26.069985,-81.42789839999999
331,12023,Florida,Columbia,14.8,30.1812696,-82.605118
332,12027,Florida,DeSoto,9.4,27.2142078,-81.77870209999999
333,12029,Florida,Dixie,7.2,29.5207227,-83.1649001
334,12031,Florida,Duval,10.0,30.3500511,-81.6035062
335,12033,Florida,Escambia,9.4,30.6389408,-87.3413599
336,12035,Florida,Flagler,9.3,29.4086072,-81.2518833
337,12037,Florida,Franklin,9.4,29.7817695,-84.8567932
338,12039,Florida,Gadsden,11.2,30.5562947,-84.6479124
339,12041,Florida,Gilchrist,10.4,29.6871128,-82.82097399999999
340,12043,Florida,Glades,12.9,26.984415,-81.0754657
341,12045,Florida,Gulf,10.2,29.8001623,-85.35496499999999
342,12047,Florida,Hamilton,15.8,30.47559579999999,-82.95015579999999
343,12049,Florida,Hardee,11.0,27.4501733,-81.8224362
344,12051,Florida,Hendry,11.9,26.6105319,-81.0754657
345,12053,Florida,Hernando,13.7,28.8999815,-82.37454009999999
346,12055,Florida,Highlands,13.3,27.3400286,-81.34002679999999
347,12057,Florida,Hillsborough,9.0,27.9903597,-82.3017728
348,12059,Florida,Holmes,15.4,30.8740806,-85.80766
349,12061,Florida,Indian River,12.2,28.2142068,-80.6431877
350,12063,Florida,Jackson,13.2,30.3321838,-81.65565099999999
351,12065,Florida,Jefferson,9.4,30.4311978,-83.8897057
352,12067,Florida,Lafayette,14.6,30.0299573,-83.2077645
353,12069,Florida,Lake,9.7,28.6736915,-81.36365860000001
354,12071,Florida,Lee,10.1,30.4196584,-83.30042159999999
355,12073,Florida,Leon,10.6,30.4906177,-84.1857115
356,12075,Florida,Levy,11.1,29.3178545,-82.82097399999999
357,12077,Florida,Liberty,10.2,30.1507777,-84.8567932
358,12079,Florida,Madison,11.8,30.4693772,-83.41292539999999
359,12081,Florida,Manatee,8.6,27.4799195,-82.34518899999999
360,12083,Florida,Marion,12.0,29.2787765,-82.12783999999999
361,12085,Florida,Martin,9.7,27.0804935,-80.4103957
362,12086,Florida,Miami-Dade,10.0,25.5516034,-80.6326916
363,12087,Florida,Monroe,6.0,24.5557001,-81.78259849999999
364,12089,Florida,Nassau,9.8,30.5927334,-81.8224362
365,12091,Florida,Okaloosa,6.9,30.57734009999999,-86.6611083
366,12093,Florida,Okeechobee,11.8,27.2439349,-80.82978279999999
367,12095,Florida,Orange,9.1,28.4844995,-81.2518833
368,12097,Florida,Osceola,9.8,28.1019838,-81.0754657
369,12099,Florida,Palm Beach,9.5,26.7056206,-80.0364297
370,12101,Florida,Pasco,9.4,28.3232418,-82.4319405
371,12103,Florida,Pinellas,8.4,27.876394,-82.7778579
372,12105,Florida,Polk,10.6,27.8617347,-81.6911559
373,12107,Florida,Putnam,12.6,29.6265157,-81.77870209999999
374,12109,Florida,St. Johns,6.7,30.0820653,-81.5471201
375,12111,Florida,St. Lucie,12.4,27.499208,-80.34219840000002
376,12113,Florida,Santa Rosa,7.9,30.3960324,-86.2288322
377,12115,Florida,Sarasota,8.2,27.3364347,-82.53065269999999
378,12117,Florida,Seminole,9.4,27.8397466,-82.79121339999999
379,12119,Florida,Sumter,9.0,28.6747526,-82.08429009999999
380,12121,Florida,Suwannee,11.1,29.3288499,-83.14429439999999
381,12123,Florida,Taylor,9.0,30.0993767,-83.67739279999999
382,12125,Florida,Union,11.7,30.0745112,-82.34518899999999
383,12127,Florida,Volusia,9.1,29.0279842,-81.0754657
384,12129,Florida,Wakulla,9.3,30.1301689,-84.3542049
385,12131,Florida,Walton,7.9,30.56401989999999,-86.17517590000001
386,12133,Florida,Washington,11.5,30.548737,-85.684578
387,13001,Georgia,Appling,7.9,33.54609000000001,-82.3163154
388,13003,Georgia,Atkinson,7.3,31.2932161,-82.8640623
389,13005,Georgia,Bacon,4.4,31.5412085,-82.4319405
390,13007,Georgia,Baker,7.1,31.2816037,-84.4802606
391,13009,Georgia,Baldwin,8.4,34.4917665,-83.5373946
392,13011,Georgia,Banks,8.5,34.378542,-83.46435509999999
393,13013,Georgia,Barrow,10.1,34.0142667,-83.6986568
394,13015,Georgia,Bartow,8.8,32.8787666,-82.4737399
395,13017,Georgia,Ben Hill,9.7,31.7664035,-83.2077645
396,13019,Georgia,Berrien,13.8,31.3118535,-83.2077645
397,13021,Georgia,Bibb,12.4,32.7865735,-83.7199136
398,13023,Georgia,Bleckley,4.8,32.4087854,-83.3789389
399,13025,Georgia,Brantley,10.9,31.1510963,-81.9971108
400,13027,Georgia,Brooks,17.0,33.2909517,-84.45936999999999
401,13029,Georgia,Bryan,9.0,32.0236584,-81.47183869999999
402,13031,Georgia,Bulloch,9.1,32.3595678,-81.77870209999999
403,13033,Georgia,Burke,8.2,33.088805,-81.9534815
404,13035,Georgia,Butts,10.3,33.2691443,-83.9532571
405,13037,Georgia,Calhoun,7.7,34.502587,-84.9510542
406,13039,Georgia,Camden,8.5,30.898276,-81.6035062
407,13043,Georgia,Candler,8.1,32.4241804,-82.08429009999999
408,13045,Georgia,Carroll,12.1,33.5642239,-85.0649071
409,13047,Georgia,Catoosa,8.1,34.8981727,-85.14793639999999
410,13049,Georgia,Charlton,13.8,30.7917361,-82.08429009999999
411,13051,Georgia,Chatham,9.7,31.9994194,-81.1196075
412,13053,Georgia,Chattahoochee,16.5,32.2952274,-84.8150781
413,13055,Georgia,Chattooga,10.0,34.4632661,-85.31362179999999
414,13057,Georgia,Cherokee,6.3,34.2514526,-84.4802606
415,13059,Georgia,Clarke,9.2,33.9519347,-83.357567
416,13061,Georgia,Clay,19.2,31.6447931,-85.0025539
417,13063,Georgia,Clayton,14.1,34.8781479,-83.4009933
418,13065,Georgia,Clinch,10.7,30.9716985,-82.82097399999999
419,13067,Georgia,Cobb,8.0,31.9590772,-83.9884612
420,13069,Georgia,Coffee,8.3,31.5182285,-82.82097399999999
421,13071,Georgia,Colquitt,8.3,31.17129349999999,-84.7332527
422,13073,Georgia,Columbia,7.1,33.5098514,-82.25832969999999
423,13075,Georgia,Cook,6.6,31.1428037,-83.46435509999999
424,13077,Georgia,Coweta,7.0,33.3716708,-84.7315563
425,13079,Georgia,Crawford,11.0,33.8828954,-83.154596
426,13081,Georgia,Crisp,15.5,31.8875724,-83.804868
427,13083,Georgia,Dade,6.1,34.9109017,-85.47880649999999
428,13085,Georgia,Dawson,8.5,31.7735001,-84.4465826
429,13087,Georgia,Decatur,6.5,33.7748275,-84.2963123
430,13089,Georgia,DeKalb,11.3,33.7956441,-84.2278796
431,13091,Georgia,Dodge,9.8,32.1287268,-83.2077645
432,13093,Georgia,Dooly,11.7,32.1593447,-83.804868
433,13095,Georgia,Dougherty,18.0,31.5439375,-84.2278796
434,13097,Georgia,Douglas,10.5,31.5088073,-82.8498654
435,13099,Georgia,Early,9.4,31.3901106,-84.8984775
436,13101,Georgia,Echols,10.1,30.7503289,-82.95015579999999
437,13103,Georgia,Effingham,6.0,32.378148,-81.38393260000001
438,13105,Georgia,Elbert,10.8,34.0795372,-82.8640623
439,13107,Georgia,Emanuel,13.2,32.5726629,-82.3017728
440,13109,Georgia,Evans,10.3,33.5337464,-82.1306747
441,13111,Georgia,Fannin,12.0,34.8580405,-84.2278796
442,13113,Georgia,Fayette,7.6,33.4502206,-84.4802606
443,13115,Georgia,Floyd,10.9,34.2828967,-85.2308414
444,13117,Georgia,Forsyth,6.2,33.0342974,-83.938242
445,13119,Georgia,Franklin,8.4,33.2776182,-85.0979973
446,13121,Georgia,Fulton,9.9,33.8033965,-84.3962535
447,13123,Georgia,Gilmer,10.0,34.6935359,-84.4802606
448,13125,Georgia,Glascock,7.1,33.2422994,-82.6267345
449,13127,Georgia,Glynn,9.3,31.2624169,-81.6035062
450,13129,Georgia,Gordon,8.3,32.8820866,-83.3323848
451,13131,Georgia,Grady,10.5,30.9050079,-84.2278796
452,13133,Georgia,Greene,6.8,33.5186591,-83.1649001
453,13135,Georgia,Gwinnett,8.3,33.9190653,-84.01674229999999
454,13137,Georgia,Habersham,7.7,34.6478893,-83.54965659999999
455,13139,Georgia,Hall,7.5,34.30778,-83.804868
456,13141,Georgia,Hancock,14.6,33.2882621,-83.03613759999999
457,13143,Georgia,Haralson,12.3,33.2265099,-84.5713164
458,13145,Georgia,Harris,8.0,32.7032697,-84.8567932
459,13147,Georgia,Hart,6.2,34.3500039,-82.95015579999999
460,13149,Georgia,Heard,12.1,33.2990406,-85.14793639999999
461,13151,Georgia,Henry,10.3,33.4347963,-84.14351359999999
462,13153,Georgia,Houston,9.7,32.4219655,-83.63484299999999
463,13155,Georgia,Irwin,6.8,31.5893221,-83.2934086
464,13157,Georgia,Jackson,7.9,33.2945651,-83.96602089999999
465,13159,Georgia,Jasper,12.7,34.4695524,-84.4289888
466,13161,Georgia,Jeff Davis,6.6,31.8234851,-82.605118
467,13163,Georgia,Jefferson,17.0,34.1170537,-83.5723876
468,13165,Georgia,Jenkins,10.3,32.7781246,-81.9971108
469,13167,Georgia,Johnson,9.0,32.7308194,-82.6915429
470,13169,Georgia,Jones,9.5,33.0002582,-83.5070203
471,13171,Georgia,Lamar,15.6,33.0765883,-84.14351359999999
472,13173,Georgia,Lanier,14.6,34.2218685,-83.96913459999999
473,13175,Georgia,Laurens,6.6,32.433014,-82.99316069999999
474,13177,Georgia,Lee,7.2,31.8128435,-84.14351359999999
475,13179,Georgia,Liberty,12.9,31.842969,-81.47183869999999
476,13181,Georgia,Lincoln,9.3,33.7875101,-82.4319405
477,13183,Georgia,Long,15.6,31.7755541,-81.8224362
478,13185,Georgia,Lowndes,13.0,30.8600022,-83.2934086
479,13187,Georgia,Lumpkin,8.2,32.0509895,-84.7990901
480,13189,Georgia,McDuffie,9.5,33.5258626,-82.5185837
481,13191,Georgia,McIntosh,8.8,31.4748147,-81.38393260000001
482,13193,Georgia,Macon,18.7,32.8406946,-83.6324022
483,13195,Georgia,Madison,8.7,33.5956813,-83.467944
484,13197,Georgia,Marion,14.3,32.328102,-84.5222189
485,13199,Georgia,Meriwether,12.8,33.0561282,-84.68974949999999
486,13201,Georgia,Miller,6.5,31.2008218,-84.7315563
487,13205,Georgia,Mitchell,13.5,33.2198688,-82.7031896
488,13207,Georgia,Monroe,10.5,33.7948364,-83.713229
489,13209,Georgia,Montgomery,6.7,31.9404913,-81.1220539
490,13211,Georgia,Morgan,6.9,31.5376731,-84.5993601
491,13213,Georgia,Murray,11.1,34.7928029,-84.7315563
492,13215,Georgia,Muscogee,11.0,32.4794133,-84.8984775
493,13217,Georgia,Newton,11.8,31.3129575,-84.3357424
494,13219,Georgia,Oconee,5.0,32.8554338,-82.949866
495,13221,Georgia,Oglethorpe,5.3,32.293769,-84.0610191
496,13223,Georgia,Paulding,8.7,33.9142037,-84.8984775
497,13225,Georgia,Peach,11.3,32.5892926,-83.8260884
498,13227,Georgia,Pickens,8.3,34.4497166,-84.4592701
499,13229,Georgia,Pierce,8.9,31.343806,-82.1713632
500,13231,Georgia,Pike,10.4,33.0881873,-84.3962535
501,13233,Georgia,Polk,10.2,34.0132398,-85.14793639999999
502,13235,Georgia,Pulaski,7.4,32.3901752,-81.9567837
503,13237,Georgia,Putnam,6.3,33.3069978,-83.3789389
504,13239,Georgia,Quitman,11.2,30.7849191,-83.5598811
505,13241,Georgia,Rabun,7.3,34.9027286,-83.3789389
506,13243,Georgia,Randolph,10.4,31.7913398,-84.68974949999999
507,13245,Georgia,Richmond,12.0,33.3205339,-82.08429009999999
508,13247,Georgia,Rockdale,11.2,33.6752492,-84.0378894
509,13249,Georgia,Schley,12.4,32.2736136,-84.3121264
510,13251,Georgia,Screven,9.8,31.48632539999999,-82.0170596
511,13253,Georgia,Seminole,9.4,30.9331429,-84.8984775
512,13255,Georgia,Spalding,12.4,33.2636732,-84.3121264
513,13257,Georgia,Stephens,10.6,33.794843,-83.1615422
514,13259,Georgia,Stewart,14.5,32.1141344,-84.8150781
515,13261,Georgia,Sumter,14.4,31.9981596,-84.2278796
516,13263,Georgia,Talbot,10.6,32.6891322,-84.5222189
517,13265,Georgia,Taliaferro,12.1,33.56978780000001,-82.8855961
518,13267,Georgia,Tattnall,7.9,32.0634576,-82.08429009999999
519,13269,Georgia,Taylor,20.6,32.5407455,-84.2278796
520,13271,Georgia,Telfair,4.4,31.8907647,-82.99316069999999
521,13273,Georgia,Terrell,14.4,31.7370079,-84.4802606
522,13275,Georgia,Thomas,10.5,30.8417409,-83.8473015
523,13277,Georgia,Tift,5.8,31.4205597,-83.54965659999999
524,13279,Georgia,Toombs,9.6,32.0795072,-82.34518899999999
525,13281,Georgia,Towns,10.0,34.9208214,-83.7199136
526,13283,Georgia,Treutlen,5.4,32.3870233,-82.5834947
527,13285,Georgia,Troup,11.9,33.0698575,-85.02334599999999
528,13287,Georgia,Turner,12.5,31.6976531,-83.63484299999999
529,13289,Georgia,Twiggs,6.7,32.68356,-83.46435509999999
530,13291,Georgia,Union,13.0,34.8457601,-83.9744262
531,13293,Georgia,Upson,11.1,32.9047684,-84.3121264
532,13295,Georgia,Walker,8.4,34.6858231,-85.35496499999999
533,13297,Georgia,Walton,7.9,33.7708613,-83.7199136
534,13299,Georgia,Ware,7.2,31.134411,-82.4752757
535,13301,Georgia,Warren,16.4,33.4470392,-82.6915429
536,13303,Georgia,Washington,12.2,33.7367948,-82.7393089
537,13305,Georgia,Wayne,11.3,31.5092107,-81.909826
538,13307,Georgia,Webster,5.8,32.0129889,-84.56414699999999
539,13309,Georgia,Wheeler,10.0,32.0999794,-82.6915429
540,13311,Georgia,White,6.8,34.2828722,-84.7452138
541,13313,Georgia,Whitfield,10.3,34.8033566,-84.981754
542,13315,Georgia,Wilcox,6.7,31.9611759,-83.46435509999999
543,13317,Georgia,Wilkes,8.9,33.808264,-82.7778579
544,13319,Georgia,Wilkinson,7.3,32.8024682,-83.1649001
545,13321,Georgia,Worth,9.8,31.5282489,-83.8897057
546,15001,Hawaii,Hawaii,8.1,19.8967662,-155.5827818
547,15003,Hawaii,Honolulu,5.6,21.3069444,-157.8583333
548,15005,Hawaii,Kalawao,0.0,21.1802778,-156.9511111
549,15007,Hawaii,Kauai,5.4,22.0964396,-159.5261238
550,15009,Hawaii,Maui,6.9,20.7983626,-156.3319253
551,16001,Idaho,Ada,6.6,43.478767,-116.2420304
552,16003,Idaho,Adams,11.3,44.9882561,-116.4916092
553,16005,Idaho,Bannock,7.2,42.5836362,-112.1430215
554,16007,Idaho,Bear Lake,3.3,42.0299239,-111.3321974
555,16009,Idaho,Benewah,10.1,47.2437836,-116.6499425
556,16011,Idaho,Bingham,7.1,43.2112303,-112.3624146
557,16013,Idaho,Blaine,4.1,43.4743428,-113.9664446
558,16015,Idaho,Boise,10.5,43.6150186,-116.2023137
559,16017,Idaho,Bonner,6.2,48.2751783,-116.5931483
560,16019,Idaho,Bonneville,5.6,43.4508683,-111.5455289
561,16021,Idaho,Boundary,4.7,48.7987617,-116.5627065
562,16023,Idaho,Butte,6.8,43.6448198,-113.1841378
563,16025,Idaho,Camas,5.8,43.5093688,-114.8243665
564,16027,Idaho,Canyon,9.4,43.67795810000001,-116.6865435
565,16029,Idaho,Caribou,1.5,42.75386839999999,-111.6660725
566,16031,Idaho,Cassia,5.7,42.358036,-113.5728501
567,16033,Idaho,Clark,3.9,44.1975553,-112.3755497
568,16035,Idaho,Clearwater,7.3,46.6775737,-115.5620377
569,16037,Idaho,Custer,3.3,44.3874133,-114.6959118
570,16039,Idaho,Elmore,8.4,43.1154284,-115.5264458
571,16041,Idaho,Franklin,5.0,42.0135375,-111.8071694
572,16043,Idaho,Fremont,6.0,44.2242743,-111.4790031
573,16045,Idaho,Gem,14.2,44.0324936,-116.3589245
574,16047,Idaho,Gooding,3.8,42.9387917,-114.7131081
575,16049,Idaho,Idaho,6.4,44.0682019,-114.7420408
576,16051,Idaho,Jefferson,6.1,43.7640903,-112.2493671
577,16053,Idaho,Jerome,6.6,42.7240732,-114.5186534
578,16055,Idaho,Kootenai,7.9,48.3102037,-116.5135257
579,16057,Idaho,Latah,7.6,46.7360364,-116.6764195
580,16059,Idaho,Lemhi,6.1,45.0364592,-113.9230554
581,16061,Idaho,Lewis,6.5,46.2664791,-116.4054092
582,16063,Idaho,Lincoln,6.0,43.5129694,-111.9644136
583,16065,Idaho,Madison,10.2,43.7508332,-111.5583742
584,16067,Idaho,Minidoka,4.8,42.7537967,-113.4902829
585,16069,Idaho,Nez Perce,6.1,46.2348914,-116.2406975
586,16071,Idaho,Oneida,6.7,42.2059769,-112.5245093
587,16073,Idaho,Owyhee,11.7,42.6827359,-116.0622892
588,16075,Idaho,Payette,10.1,44.0782195,-116.9337711
589,16077,Idaho,Power,9.4,42.8611574,-112.4420536
590,16079,Idaho,Shoshone,11.8,42.9360165,-114.4058752
591,16081,Idaho,Teton,8.5,43.886579,-111.6777396
592,16083,Idaho,Twin Falls,5.9,42.5558381,-114.4700518
593,16085,Idaho,Valley,5.7,43.6971294,-114.3517172
594,16087,Idaho,Washington,9.7,44.3658715,-116.7548607
595,17001,Illinois,Adams,6.8,39.8653244,-91.1981974
596,17003,Illinois,Alexander,13.9,39.7242387,-90.0390073
597,17005,Illinois,Bond,6.4,38.902985,-89.4742177
598,17007,Illinois,Boone,9.7,42.34849759999999,-88.8263006
599,17009,Illinois,Brown,5.4,39.9379573,-90.7152749
600,17011,Illinois,Bureau,7.6,41.35991560000001,-89.4742177
601,17013,Illinois,Calhoun,5.4,38.65032619999999,-88.04364729999999
602,17015,Illinois,Carroll,8.1,42.0385843,-89.9626799
603,17017,Illinois,Cass,8.5,39.9398601,-90.26200419999999
604,17019,Illinois,Champaign,6.5,40.1164204,-88.2433829
605,17021,Illinois,Christian,5.4,39.5672183,-89.3226954
606,17023,Illinois,Clark,8.5,39.3824189,-87.77633329999999
607,17025,Illinois,Clay,6.7,38.7279431,-88.55653099999999
608,17027,Illinois,Clinton,4.9,40.1536479,-88.9645253
609,17029,Illinois,Coles,9.7,39.5560011,-88.24611829999999
610,17031,Illinois,Cook,10.7,41.7376587,-87.697554
611,17033,Illinois,Crawford,6.8,39.0499568,-87.77633329999999
612,17035,Illinois,Cumberland,7.4,39.2653533,-88.2071598
613,17037,Illinois,DeKalb,10.4,41.9294736,-88.75036469999999
614,17039,Illinois,De Witt,7.7,40.1811468,-88.7861844
615,17041,Illinois,Douglas,6.1,39.7617631,-88.2071598
616,17043,Illinois,DuPage,7.0,41.8243831,-88.0900762
617,17045,Illinois,Edgar,9.6,39.71312229999999,-87.77633329999999
618,17047,Illinois,Edwards,8.3,40.7455683,-89.7489531
619,17049,Illinois,Effingham,5.4,39.1200418,-88.5433829
620,17051,Illinois,Fayette,10.4,39.0669568,-89.0179332
621,17053,Illinois,Ford,8.6,42.0512387,-87.8338692
622,17055,Illinois,Franklin,10.0,39.6203259,-90.04400009999999
623,17057,Illinois,Fulton,7.9,41.8672508,-90.1595705
624,17059,Illinois,Gallatin,7.5,37.7107751,-88.24611829999999
625,17061,Illinois,Greene,9.4,39.4029862,-90.37483540000001
626,17063,Illinois,Grundy,7.8,41.3500531,-88.4016041
627,17065,Illinois,Hamilton,4.5,40.3964333,-91.3390389
628,17067,Illinois,Hancock,6.8,40.38493649999999,-91.13530200000001
629,17069,Illinois,Hardin,18.1,39.1567149,-90.6178994
630,17071,Illinois,Henderson,7.0,41.0250376,-90.356239
631,17073,Illinois,Henry,5.8,41.1114249,-89.35647759999999
632,17075,Illinois,Iroquois,7.5,40.8275356,-87.5819743
633,17077,Illinois,Jackson,10.4,37.7218304,-89.3226954
634,17079,Illinois,Jasper,5.5,39.0554965,-88.0900762
635,17081,Illinois,Jefferson,9.2,38.2267348,-88.86469799999999
636,17083,Illinois,Jersey,8.0,39.0704754,-90.37483540000001
637,17085,Illinois,Jo Daviess,5.6,42.3148804,-90.2244662
638,17087,Illinois,Johnson,10.3,37.42037639999999,-88.90306
639,17089,Illinois,Kane,7.6,39.190047,-90.35372699999999
640,17091,Illinois,Kankakee,9.8,41.1200325,-87.8611531
641,17093,Illinois,Kendall,6.0,41.5507043,-88.4403883
642,17095,Illinois,Knox,7.4,40.8776411,-90.2244662
643,17097,Illinois,Lake,7.9,42.3689363,-87.8271534
644,17099,Illinois,LaSalle,9.8,41.3621503,-89.0418249
645,17101,Illinois,Lawrence,6.1,38.7157534,-87.77633329999999
646,17103,Illinois,Lee,7.5,41.7950293,-88.9414786
647,17105,Illinois,Livingston,6.3,38.9675463,-89.76398270000001
648,17107,Illinois,Logan,7.8,40.061338,-89.3226954
649,17109,Illinois,McDonough,9.4,40.3885122,-90.6773046
650,17111,Illinois,McHenry,8.0,42.333355,-88.2667534
651,17113,Illinois,McLean,5.5,40.3144833,-89.16980900000001
652,17115,Illinois,Macon,10.5,39.7128155,-88.9970218
653,17117,Illinois,Macoupin,9.6,39.2375268,-89.9253233
654,17119,Illinois,Madison,8.9,38.6825502,-90.1570536
655,17121,Illinois,Marion,9.6,37.7306054,-88.9331256
656,17123,Illinois,Marshall,6.5,39.3914252,-87.6936384
657,17125,Illinois,Mason,9.5,38.9531001,-88.6236615
658,17127,Illinois,Massac,8.8,37.2478298,-88.7493998
659,17129,Illinois,Menard,5.7,37.9169037,-89.8399815
660,17131,Illinois,Mercer,6.2,41.1985037,-90.6773046
661,17133,Illinois,Monroe,5.2,38.2742526,-90.1869644
662,17135,Illinois,Montgomery,5.4,41.730585,-88.3459048
663,17137,Illinois,Morgan,8.3,39.7341219,-90.2244662
664,17139,Illinois,Moultrie,4.9,39.6020543,-88.59517509999999
665,17141,Illinois,Ogle,8.0,41.9969811,-89.3226954
666,17143,Illinois,Peoria,8.7,40.6936488,-89.5889864
667,17145,Illinois,Perry,8.0,39.7831031,-90.74540619999999
668,17147,Illinois,Piatt,6.3,40.0543526,-88.55653099999999
669,17149,Illinois,Pike,5.6,39.5662363,-90.8294002
670,17151,Illinois,Pope,10.0,37.417132,-88.59517509999999
671,17153,Illinois,Pulaski,16.2,37.2136615,-89.2059111
672,17155,Illinois,Putnam,9.9,41.1850275,-89.396345
673,17157,Illinois,Randolph,6.7,38.0629321,-89.77553379999999
674,17159,Illinois,Richland,5.4,38.7212791,-88.0900762
675,17161,Illinois,Rock Island,7.9,41.5094771,-90.5787476
676,17163,Illinois,St. Clair,8.9,38.40081199999999,-89.9253233
677,17165,Illinois,Saline,13.0,37.7149675,-88.55653099999999
678,17167,Illinois,Sangamon,7.9,39.7337353,-89.62516459999999
679,17169,Illinois,Schuyler,5.3,40.1844543,-90.6393702
680,17171,Illinois,Scott,9.4,39.6094934,-90.4879916
681,17173,Illinois,Shelby,6.2,39.3980704,-88.86469799999999
682,17175,Illinois,Stark,7.7,41.0795661,-89.81303559999999
683,17177,Illinois,Stephenson,9.9,42.31448899999999,-89.62516459999999
684,17179,Illinois,Tazewell,5.5,40.5522078,-89.4742177
685,17181,Illinois,Union,7.0,42.2330782,-88.5423132
686,17183,Illinois,Vermilion,10.7,39.5811463,-87.58891249999999
687,17185,Illinois,Wabash,8.7,38.4226484,-87.8156715
688,17187,Illinois,Warren,9.2,42.4963957,-89.98956810000001
689,17189,Illinois,Washington,5.5,40.7036482,-89.4073123
690,17191,Illinois,Wayne,5.3,41.9508336,-88.242369
691,17193,Illinois,White,8.8,38.0501137,-88.24611829999999
692,17195,Illinois,Whiteside,8.1,41.7605503,-89.8505012
693,17197,Illinois,Will,7.8,40.1151102,-88.22358369999999
694,17199,Illinois,Williamson,7.0,38.9856018,-89.7639829
695,17201,Illinois,Winnebago,11.5,42.2661311,-89.2412202
696,17203,Illinois,Woodford,5.9,40.7128889,-89.1705998
697,18001,Indiana,Adams,6.2,40.7249237,-84.8984775
698,18003,Indiana,Allen,8.0,41.0932622,-85.02334599999999
699,18005,Indiana,Bartholomew,5.4,39.206801,-85.8895551
700,18007,Indiana,Benton,5.3,41.509216,-85.76110159999999
701,18009,Indiana,Blackford,9.8,40.49927840000001,-85.31362179999999
702,18011,Indiana,Boone,3.7,40.0106163,-86.49965460000001
703,18013,Indiana,Brown,6.2,39.1749729,-86.17517590000001
704,18015,Indiana,Carroll,8.2,40.542415,-86.5400674
705,18017,Indiana,Cass,8.7,39.0869874,-87.27862669999999
706,18019,Indiana,Clark,6.8,38.4492903,-85.7256372
707,18021,Indiana,Clay,7.8,39.36862199999999,-87.14228949999999
708,18023,Indiana,Clinton,7.3,39.6569817,-87.3980741
709,18025,Indiana,Crawford,6.6,38.3054548,-86.4592091
710,18027,Indiana,Daviess,5.4,38.7020241,-87.14228949999999
711,18029,Indiana,Dearborn,8.1,39.1713075,-84.981754
712,18031,Indiana,Decatur,6.3,40.830603,-84.9291329
713,18033,Indiana,DeKalb,7.5,41.4138928,-85.02334599999999
714,18035,Indiana,Delaware,10.1,39.1478313,-85.2071816
715,18037,Indiana,Dubois,3.3,38.4453945,-86.8041574
716,18039,Indiana,Elkhart,7.4,41.6819935,-85.9766671
717,18041,Indiana,Fayette,12.1,39.9311099,-86.39721999999999
718,18043,Indiana,Floyd,7.3,38.2869276,-85.8895551
719,18045,Indiana,Fountain,8.6,40.22271970000001,-87.3347575
720,18047,Indiana,Franklin,6.4,39.4806055,-86.0549863
721,18049,Indiana,Fulton,6.0,40.9472635,-86.2627772
722,18051,Indiana,Gibson,4.3,38.3338249,-87.5791287
723,18053,Indiana,Grant,8.8,40.4730605,-85.684578
724,18055,Indiana,Greene,7.0,39.0321796,-86.9824288
725,18057,Indiana,Hamilton,4.3,41.53366159999999,-84.9127396
726,18059,Indiana,Hancock,5.5,39.8249915,-85.84862360000001
727,18061,Indiana,Harrison,7.9,38.1701136,-86.17517590000001
728,18063,Indiana,Hendricks,5.3,39.8064942,-86.5400674
729,18065,Indiana,Henry,10.6,39.9704844,-85.35496499999999
730,18067,Indiana,Howard,9.2,40.4482767,-86.1344697
731,18069,Indiana,Huntington,7.4,40.8831011,-85.49747599999999
732,18071,Indiana,Jackson,7.3,38.8794321,-86.05296039999999
733,18073,Indiana,Jasper,6.3,38.3914418,-86.9311094
734,18075,Indiana,Jay,8.2,40.4465288,-85.02334599999999
735,18077,Indiana,Jefferson,9.2,38.2775702,-85.7371847
736,18079,Indiana,Jennings,9.7,38.9914998,-85.684578
737,18081,Indiana,Johnson,6.3,38.277823,-87.74586099999999
738,18083,Indiana,Knox,6.1,41.2958751,-86.6250139
739,18085,Indiana,Kosciusko,6.5,41.2864679,-85.84862360000001
740,18087,Indiana,LaGrange,5.5,41.641717,-85.4166467
741,18089,Indiana,Lake,10.5,41.4897279,-87.30161319999999
742,18091,Indiana,LaPorte,9.8,41.611143,-86.7227195
743,18093,Indiana,Lawrence,6.3,39.8386516,-86.0252612
744,18095,Indiana,Madison,9.3,38.7358933,-85.37995769999999
745,18097,Indiana,Marion,10.1,40.5583739,-85.6591442
746,18099,Indiana,Marshall,8.3,39.8480969,-87.18779010000002
747,18101,Indiana,Martin,6.1,38.6937856,-86.8220341
748,18103,Indiana,Miami,9.4,40.6140514,-86.1064885
749,18105,Indiana,Monroe,6.9,40.7450468,-84.9369111
750,18107,Indiana,Montgomery,6.9,38.66254929999999,-87.0461181
751,18109,Indiana,Morgan,7.3,39.51168089999999,-86.3376761
752,18111,Indiana,Newton,8.9,40.9703076,-87.42075179999999
753,18113,Indiana,Noble,8.8,41.4277391,-85.35496499999999
754,18115,Indiana,Ohio,7.7,38.9417259,-84.9609464
755,18117,Indiana,Orange,6.8,39.5842145,-85.2991328
756,18119,Indiana,Owen,8.0,38.4581201,-85.5419048
757,18121,Indiana,Parke,7.8,39.69929459999999,-87.14228949999999
758,18123,Indiana,Perry,5.6,38.0159043,-86.6611083
759,18125,Indiana,Pike,5.1,40.1242062,-86.4819461
760,18127,Indiana,Porter,7.3,41.6163803,-87.0747971
761,18129,Indiana,Posey,5.3,38.0020359,-87.89424509999999
762,18131,Indiana,Pulaski,7.0,40.9957383,-86.8220341
763,18133,Indiana,Putnam,7.3,39.690997,-86.8220341
764,18135,Indiana,Randolph,7.8,40.12045320000001,-85.02334599999999
765,18137,Indiana,Ripley,7.4,39.0986811,-85.2308414
766,18139,Indiana,Rush,6.9,39.6481768,-85.52002399999999
767,18141,Indiana,St. Joseph,8.5,41.6228085,-86.3376761
768,18143,Indiana,Scott,11.0,41.741055,-85.555809
769,18145,Indiana,Shelby,8.3,41.1953592,-87.3479261
770,18147,Indiana,Spencer,5.6,39.2867117,-86.7625058
771,18149,Indiana,Starke,11.5,41.2715616,-86.6207943
772,18151,Indiana,Steuben,6.9,41.6115471,-84.981754
773,18153,Indiana,Sullivan,6.8,39.0953199,-87.4058525
774,18155,Indiana,Switzerland,9.6,38.8419394,-85.0649071
775,18157,Indiana,Tippecanoe,6.5,40.34697310000001,-86.8220341
776,18159,Indiana,Tipton,6.2,40.2822598,-86.04109799999999
777,18161,Indiana,Union,7.7,38.4652211,-87.4353991
778,18163,Indiana,Vanderburgh,6.2,38.0806099,-87.5791287
779,18165,Indiana,Vermillion,6.5,39.8512139,-87.48020679999999
780,18167,Indiana,Vigo,8.9,39.4165382,-87.42075179999999
781,18169,Indiana,Wabash,7.0,40.797821,-85.8205411
782,18171,Indiana,Warren,5.5,40.6828226,-85.4271952
783,18173,Indiana,Warrick,5.0,38.0736703,-87.2618328
784,18175,Indiana,Washington,10.1,38.65921520000001,-87.172789
785,18177,Indiana,Wayne,9.0,39.831882,-84.981754
786,18179,Indiana,Wells,4.1,40.7778348,-85.1894045
787,18181,Indiana,White,6.0,40.6765551,-86.9824288
788,18183,Indiana,Whitley,5.3,41.1136133,-85.52002399999999
789,19001,Iowa,Adair,3.2,41.50043,-94.6433504
790,19003,Iowa,Adams,3.2,41.0652066,-94.6863782
791,19005,Iowa,Allamakee,6.0,43.2430754,-91.44346900000001
792,19007,Iowa,Appanoose,6.6,40.6806102,-92.8577105
793,19009,Iowa,Audubon,2.6,41.7180421,-94.93248679999999
794,19011,Iowa,Benton,4.7,40.7033242,-94.3582909
795,19013,Iowa,Black Hawk,6.6,42.447804,-92.38136209999999
796,19015,Iowa,Boone,4.7,42.0597047,-93.8802273
797,19017,Iowa,Bremer,3.9,42.76108199999999,-92.38136209999999
798,19019,Iowa,Buchanan,3.9,41.7650194,-91.24682849999999
799,19021,Iowa,Buena Vista,3.7,42.6705452,-95.1432068
800,19023,Iowa,Butler,4.0,42.7502186,-92.8577105
801,19025,Iowa,Calhoun,4.0,42.3785903,-94.645035
802,19027,Iowa,Carroll,3.3,42.0655986,-94.86727929999999
803,19029,Iowa,Cass,3.2,41.2538068,-94.976654
804,19031,Iowa,Cedar,3.0,41.2122326,-92.525745
805,19033,Iowa,Cerro Gordo,4.4,43.1543186,-93.20296750000001
806,19035,Iowa,Cherokee,3.7,42.7496413,-95.55154309999999
807,19037,Iowa,Chickasaw,3.8,43.0724667,-92.38136209999999
808,19039,Iowa,Clarke,5.0,41.01778360000001,-93.7841503
809,19041,Iowa,Clay,3.8,43.1368038,-95.1432068
810,19043,Iowa,Clayton,4.2,42.9038759,-91.1473518
811,19045,Iowa,Clinton,4.8,41.8444735,-90.1887379
812,19047,Iowa,Crawford,4.8,42.034686,-95.3102505
813,19049,Iowa,Dallas,2.6,41.6120022,-93.9878427
814,19051,Iowa,Davis,4.2,40.6913838,-92.38136209999999
815,19053,Iowa,Decatur,7.5,40.7419443,-93.83383459999999
816,19055,Iowa,Delaware,3.6,42.4752682,-91.34542139999999
817,19057,Iowa,Des Moines,6.3,41.5868353,-93.6249593
818,19059,Iowa,Dickinson,3.8,43.4049388,-95.18492189999999
819,19061,Iowa,Dubuque,4.3,42.50226610000001,-90.66546749999999
820,19063,Iowa,Emmet,4.6,43.34943,-94.6863782
821,19065,Iowa,Fayette,5.1,42.84192549999999,-91.8021071
822,19067,Iowa,Floyd,3.5,43.1277502,-92.7363031
823,19069,Iowa,Franklin,4.2,40.6680932,-91.5112673
824,19071,Iowa,Fremont,3.7,41.2125116,-92.4354648
825,19073,Iowa,Greene,5.6,42.8958066,-92.80241579999999
826,19075,Iowa,Grundy,3.9,42.4369506,-92.8577105
827,19077,Iowa,Guthrie,5.4,41.7530909,-94.479976
828,19079,Iowa,Hamilton,3.8,41.1699246,-92.90348759999999
829,19081,Iowa,Hancock,1.5,41.3901703,-95.3633591
830,19083,Iowa,Hardin,4.9,42.4285425,-93.17796589999999
831,19085,Iowa,Harrison,3.6,41.6933855,-95.81428849999999
832,19087,Iowa,Henry,5.1,41.0283603,-91.5983959
833,19089,Iowa,Howard,3.4,43.3819496,-92.38136209999999
834,19091,Iowa,Humboldt,4.8,42.7208047,-94.2152402
835,19093,Iowa,Ida,3.7,42.3418685,-95.4777811
836,19095,Iowa,Iowa,1.8,41.8780025,-93.097702
837,19097,Iowa,Jackson,4.4,42.1560699,-90.52578229999999
838,19099,Iowa,Jasper,5.4,41.6414924,-93.0175712
839,19101,Iowa,Jefferson,6.4,42.0172457,-94.3774232
840,19103,Iowa,Johnson,3.5,41.6709834,-93.7130493
841,19105,Iowa,Jones,5.0,42.1516737,-91.13530200000001
842,19107,Iowa,Keokuk,5.1,40.4044731,-91.3963966
843,19109,Iowa,Kossuth,2.1,43.25133839999999,-94.2333355
844,19111,Iowa,Lee,8.7,40.70686630000001,-91.44346900000001
845,19113,Iowa,Linn,4.8,42.0659844,-91.67606909999999
846,19115,Iowa,Louisa,4.8,41.19330009999999,-91.28910359999999
847,19117,Iowa,Lucas,5.8,41.0274991,-93.4599348
848,19119,Iowa,Lyon,2.4,43.3954333,-96.15269850000001
849,19121,Iowa,Madison,5.7,41.2922367,-93.9878427
850,19123,Iowa,Mahaska,8.0,41.32958800000001,-92.6983868
851,19125,Iowa,Marion,4.0,42.033279,-91.5968958
852,19127,Iowa,Marshall,6.3,42.0407088,-92.9375739
853,19129,Iowa,Mills,3.8,41.0624496,-95.6457951
854,19131,Iowa,Mitchell,3.2,43.3216363,-92.86686209999999
855,19133,Iowa,Monona,5.5,43.0516494,-91.38930409999999
856,19135,Iowa,Monroe,6.2,41.5208256,-93.1038129
857,19137,Iowa,Montgomery,9.6,43.44127410000001,-95.2025451
858,19139,Iowa,Muscatine,4.6,41.424473,-91.0432051
859,19141,Iowa,O'Brien,2.8,43.1131245,-95.6457951
860,19143,Iowa,Osceola,3.3,41.0342618,-93.766759
861,19145,Iowa,Page,5.1,40.7635099,-95.1432068
862,19147,Iowa,Palo Alto,2.9,43.1580878,-94.645035
863,19149,Iowa,Plymouth,3.4,43.2446852,-93.1215924
864,19151,Iowa,Pocahontas,4.9,42.7355299,-94.66914670000001
865,19153,Iowa,Polk,5.8,41.6278423,-93.5003454
866,19155,Iowa,Pottawattamie,5.0,41.3911501,-95.4777811
867,19157,Iowa,Poweshiek,4.8,41.6530119,-92.539603
868,19159,Iowa,Ringgold,4.8,40.7973811,-94.315422
869,19161,Iowa,Sac,4.0,42.3573517,-95.1432068
870,19163,Iowa,Scott,5.4,41.6393199,-90.6393702
871,19165,Iowa,Shelby,2.9,41.5161017,-95.45027999999999
872,19167,Iowa,Sioux,1.8,42.4963416,-96.40494079999999
873,19169,Iowa,Story,5.5,42.1040438,-93.5003454
874,19171,Iowa,Tama,5.6,41.9627392,-92.576753
875,19173,Iowa,Taylor,4.4,40.7846069,-94.645035
876,19175,Iowa,Union,5.4,42.2455405,-93.06464679999999
877,19177,Iowa,Van Buren,6.6,40.7001158,-91.9099238
878,19179,Iowa,Wapello,8.0,41.18141929999999,-91.1854273
879,19181,Iowa,Warren,4.8,41.30805489999999,-93.5003454
880,19183,Iowa,Washington,4.2,41.30140770000001,-91.69164169999999
881,19185,Iowa,Wayne,4.3,40.6677356,-93.33889169999999
882,19187,Iowa,Webster,8.4,41.4383427,-92.1690689
883,19189,Iowa,Winnebago,6.2,43.3481922,-93.66232389999999
884,19191,Iowa,Winneshiek,3.0,43.2362611,-91.9099238
885,19193,Iowa,Woodbury,5.2,42.3166158,-95.9832577
886,19195,Iowa,Worth,4.7,43.3580686,-93.33889169999999
887,19197,Iowa,Wright,5.7,42.7273744,-93.66232389999999
888,20001,Kansas,Allen,7.0,38.6561191,-96.1697173
889,20003,Kansas,Anderson,5.9,38.2809328,-95.3102505
890,20005,Kansas,Atchison,7.3,39.5630521,-95.12163559999999
891,20007,Kansas,Barber,3.1,37.2299788,-98.7481167
892,20009,Kansas,Barton,6.8,38.3613844,-98.7651482
893,20011,Kansas,Bourbon,3.3,37.7957092,-94.81059549999999
894,20013,Kansas,Brown,4.5,39.770047,-95.4777811
895,20015,Kansas,Butler,5.6,37.8649441,-96.83509989999999
896,20017,Kansas,Chase,2.9,38.355011,-98.3495111
897,20019,Kansas,Chautauqua,5.1,37.0203354,-96.17665590000001
898,20021,Kansas,Cherokee,5.8,37.3458874,-94.80885040000001
899,20023,Kansas,Cheyenne,1.9,39.7877848,-101.7979613
900,20025,Kansas,Clark,1.4,37.3158895,-99.8124935
901,20027,Kansas,Clay,1.9,39.34791999999999,-97.179026
902,20029,Kansas,Cloud,6.8,39.4795571,-97.69822719999999
903,20031,Kansas,Coffey,5.1,38.2570639,-95.81428849999999
904,20033,Kansas,Comanche,5.4,37.1894543,-99.2785583
905,20035,Kansas,Cowley,7.0,37.2660235,-96.9209135
906,20037,Kansas,Crawford,5.6,37.45579900000001,-94.81059549999999
907,20039,Kansas,Decatur,3.8,39.74803680000001,-100.5296115
908,20041,Kansas,Dickinson,6.7,38.85059770000001,-97.179026
909,20043,Kansas,Doniphan,5.8,39.8245628,-95.18492189999999
910,20045,Kansas,Douglas,6.0,37.5194642,-97.01281469999999
911,20047,Kansas,Edwards,2.0,37.865958,-99.2785583
912,20049,Kansas,Elk,5.3,37.3936365,-96.15269850000001
913,20051,Kansas,Ellis,4.5,38.9380662,-99.56066690000002
914,20053,Kansas,Ellsworth,4.3,38.7305648,-98.22811259999999
915,20055,Kansas,Finney,4.6,38.0625252,-100.8903099
916,20057,Kansas,Ford,6.4,37.6361315,-99.7540159
917,20059,Kansas,Franklin,6.9,37.5244779,-94.70495919999999
918,20061,Kansas,Geary,9.2,38.9984685,-96.79223549999999
919,20063,Kansas,Gove,1.9,38.9590176,-100.4877663
920,20065,Kansas,Graham,2.4,39.3198302,-99.8124935
921,20067,Kansas,Grant,7.3,37.5245985,-101.2523792
922,20069,Kansas,Gray,2.9,37.6840811,-100.439656
923,20071,Kansas,Greeley,2.1,38.3666861,-95.12691559999999
924,20073,Kansas,Greenwood,3.5,37.9025905,-96.15269850000001
925,20075,Kansas,Hamilton,2.3,37.9794705,-96.1641647
926,20077,Kansas,Harper,3.7,37.2866863,-98.02589449999999
927,20079,Kansas,Harvey,4.4,38.0025215,-97.35165579999999
928,20081,Kansas,Haskell,3.9,37.5588285,-100.8903099
929,20083,Kansas,Hodgeman,2.5,38.1429747,-99.99122539999999
930,20085,Kansas,Jackson,4.4,39.4241422,-95.81428849999999
931,20087,Kansas,Jefferson,6.9,39.2827652,-95.3102505
932,20089,Kansas,Jewell,2.5,39.671399,-98.153661
933,20091,Kansas,Johnson,4.5,37.5703377,-101.7506777
934,20093,Kansas,Kearny,1.8,38.0281402,-101.2523792
935,20095,Kansas,Kingman,5.7,37.6458491,-98.1136734
936,20097,Kansas,Kiowa,4.0,37.0172493,-98.48535389999999
937,20099,Kansas,Labette,5.3,37.2306195,-95.18357879999999
938,20101,Kansas,Lane,2.4,38.4397392,-95.0821916
939,20103,Kansas,Leavenworth,5.9,39.3111112,-94.9224637
940,20105,Kansas,Lincoln,6.5,39.0403293,-98.14769650000001
941,20107,Kansas,Linn,8.3,39.6800019,-97.08419180000001
942,20109,Kansas,Logan,3.9,39.6616746,-99.57038539999999
943,20111,Kansas,Lyon,7.2,38.3450104,-98.20172679999999
944,20113,Kansas,McPherson,3.1,38.3708415,-97.66420869999999
945,20115,Kansas,Marion,5.0,38.3483493,-97.017245
946,20117,Kansas,Marshall,3.0,39.717719,-96.49297969999999
947,20119,Kansas,Meade,2.8,37.2855796,-100.3401456
948,20121,Kansas,Miami,5.6,38.6381689,-94.81059549999999
949,20123,Kansas,Mitchell,2.6,38.3838988,-98.09977789999999
950,20125,Kansas,Montgomery,8.7,37.240253,-95.81428849999999
951,20127,Kansas,Morris,3.2,38.7144832,-96.663812
952,20129,Kansas,Morton,5.8,37.1333387,-101.7979613
953,20131,Kansas,Nemaha,1.7,39.7451077,-95.9832577
954,20133,Kansas,Neosho,4.7,37.6045688,-95.3102505
955,20135,Kansas,Ness,2.7,38.4769509,-99.99122539999999
956,20137,Kansas,Norton,1.7,39.8338946,-99.89151129999999
957,20139,Kansas,Osage,8.2,38.6009003,-95.6457951
958,20141,Kansas,Osborne,4.0,39.4388993,-98.6947949
959,20143,Kansas,Ottawa,5.3,38.615768,-95.2686366
960,20145,Kansas,Pawnee,1.9,38.2017581,-99.2785583
961,20147,Kansas,Phillips,4.3,39.766638,-99.3673084
962,20149,Kansas,Pottawatomie,3.7,39.3976344,-96.3226072
963,20151,Kansas,Pratt,5.6,37.6439071,-98.73759109999999
964,20153,Kansas,Rawlins,2.3,39.8600904,-101.0711758
965,20155,Kansas,Reno,5.7,39.02135579999999,-95.1223608
966,20157,Kansas,Republic,3.8,39.9236213,-97.82170959999999
967,20159,Kansas,Rice,5.5,39.5722226,-97.5555928
968,20161,Kansas,Riley,5.8,39.29888529999999,-96.8308436
969,20163,Kansas,Rooks,4.1,39.3638509,-99.2785583
970,20165,Kansas,Rush,5.6,38.8896137,-94.7842063
971,20167,Kansas,Russell,6.9,38.8952893,-98.8598061
972,20169,Kansas,Saline,5.0,38.8174853,-97.69822719999999
973,20171,Kansas,Scott,5.8,38.562531,-100.8903099
974,20173,Kansas,Sedgwick,6.9,37.9166784,-97.422541
975,20175,Kansas,Seward,9.0,38.1777913,-98.7948107
976,20177,Kansas,Shawnee,6.8,39.02284849999999,-94.7151865
977,20179,Kansas,Sheridan,1.2,39.3470831,-100.439656
978,20181,Kansas,Sherman,4.0,37.2572835,-95.0571872
979,20183,Kansas,Smith,3.2,39.7333849,-98.7481167
980,20185,Kansas,Stafford,2.6,37.9622371,-98.60063749999999
981,20187,Kansas,Stanton,2.4,38.5675368,-94.99744609999999
982,20189,Kansas,Stevens,3.0,37.186894,-101.2523792
983,20191,Kansas,Sumner,7.0,37.2236052,-97.6114217
984,20193,Kansas,Thomas,2.7,39.3702882,-101.0711758
985,20195,Kansas,Trego,1.0,38.9900316,-99.8124935
986,20197,Kansas,Wabaunsee,6.2,39.1461086,-96.346109
987,20199,Kansas,Wallace,5.4,38.9113982,-101.5915562
988,20201,Kansas,Washington,3.1,39.8180592,-97.0508605
989,20203,Kansas,Wichita,3.1,37.68717609999999,-97.33005299999999
990,20205,Kansas,Wilson,6.5,38.8250106,-98.4753437
991,20207,Kansas,Woodson,4.6,37.9197853,-95.81428849999999
992,20209,Kansas,Wyandotte,11.2,39.0986811,-94.7691586
993,21001,Kentucky,Adair,7.7,37.076403,-85.31362179999999
994,21003,Kentucky,Allen,9.2,37.6100457,-82.7279705
995,21005,Kentucky,Anderson,6.9,37.998648,-84.981754
996,21007,Kentucky,Ballard,6.2,37.0359869,-89.0179332
997,21009,Kentucky,Barren,7.6,36.9676836,-85.84862360000001
998,21011,Kentucky,Bath,14.0,38.1068164,-83.7199136
999,21013,Kentucky,Bell,11.6,36.741122,-83.63484299999999
1000,21015,Kentucky,Boone,5.6,38.9940572,-84.7315563
1001,21017,Kentucky,Bourbon,9.9,38.22448199999999,-85.575899
1002,21019,Kentucky,Boyd,10.5,38.3833265,-82.6915429
1003,21021,Kentucky,Boyle,7.1,37.6526034,-84.8150781
1004,21023,Kentucky,Bracken,8.3,38.7117016,-84.05902900000001
1005,21025,Kentucky,Breathitt,12.4,37.5359616,-83.33618799999999
1006,21027,Kentucky,Breckinridge,11.5,37.7982002,-86.4592091
1007,21029,Kentucky,Bullitt,7.6,37.9842107,-85.684578
1008,21031,Kentucky,Butler,6.1,38.7864569,-84.36965939999999
1009,21033,Kentucky,Caldwell,8.7,37.1501019,-87.89424509999999
1010,21035,Kentucky,Calloway,9.1,36.6402766,-88.28504199999999
1011,21037,Kentucky,Campbell,6.8,38.8951891,-84.3962535
1012,21039,Kentucky,Carlisle,6.8,38.3120197,-84.027427
1013,21041,Kentucky,Carroll,13.2,38.6748355,-85.0649071
1014,21043,Kentucky,Carter,11.1,38.3204714,-83.03613759999999
1015,21045,Kentucky,Casey,9.0,37.3157449,-84.8984775
1016,21047,Kentucky,Christian,12.7,36.8410586,-87.460397
1017,21049,Kentucky,Clark,7.9,37.959945,-84.14351359999999
1018,21051,Kentucky,Clay,15.9,37.4767119,-87.8200159
1019,21053,Kentucky,Clinton,9.3,36.6672813,-88.9933965
1020,21055,Kentucky,Crittenden,7.1,38.7828437,-84.6052206
1021,21057,Kentucky,Cumberland,10.2,36.9781475,-82.9884955
1022,21059,Kentucky,Daviess,6.8,37.7307984,-87.10237459999999
1023,21061,Kentucky,Edmonson,8.9,37.1941682,-86.21584969999999
1024,21063,Kentucky,Elliott,6.2,38.1575088,-83.12200740000002
1025,21065,Kentucky,Estill,11.8,37.6975384,-83.9744262
1026,21067,Kentucky,Fayette,6.9,38.06064780000001,-84.4802606
1027,21069,Kentucky,Fleming,9.7,38.3987633,-83.67739279999999
1028,21071,Kentucky,Floyd,9.7,37.5455463,-82.7778579
1029,21073,Kentucky,Franklin,8.7,36.722263,-86.57721769999999
1030,21075,Kentucky,Fulton,12.0,36.5042277,-88.8742259
1031,21077,Kentucky,Gallatin,6.0,38.7295069,-84.87763919999999
1032,21079,Kentucky,Garrard,11.4,37.6413234,-84.56414699999999
1033,21081,Kentucky,Grant,6.8,38.6565245,-84.6479124
1034,21083,Kentucky,Graves,7.2,36.6887728,-88.7108964
1035,21085,Kentucky,Grayson,9.3,38.3325812,-82.9485023
1036,21087,Kentucky,Green,9.0,36.9685219,-86.4808043
1037,21089,Kentucky,Greenup,10.1,38.5731349,-82.83016769999999
1038,21091,Kentucky,Hancock,5.9,37.8280909,-86.761749
1039,21093,Kentucky,Hardin,8.2,36.7647773,-88.2953134
1040,21095,Kentucky,Harlan,9.8,36.8431441,-83.321848
1041,21097,Kentucky,Harrison,8.1,38.4333045,-84.3542049
1042,21099,Kentucky,Hart,9.6,37.3101304,-85.84862360000001
1043,21101,Kentucky,Henderson,8.0,37.8361538,-87.59001339999999
1044,21103,Kentucky,Henry,6.6,38.4268385,-85.14793639999999
1045,21105,Kentucky,Hickman,8.8,36.5711721,-89.18617909999999
1046,21107,Kentucky,Hopkins,6.7,37.3153093,-87.5791287
1047,21109,Kentucky,Jackson,12.3,37.5531457,-83.38351349999999
1048,21111,Kentucky,Jefferson,8.4,38.1938097,-85.64348700000001
1049,21113,Kentucky,Jessamine,8.8,37.895573,-84.56414699999999
1050,21115,Kentucky,Johnson,9.1,37.8048335,-82.8640623
1051,21117,Kentucky,Kenton,7.7,38.9863872,-84.56414699999999
1052,21119,Kentucky,Knott,14.6,37.3461117,-82.99316069999999
1053,21121,Kentucky,Knox,15.7,36.9260578,-83.8897057
1054,21123,Kentucky,Larue,9.3,37.5189552,-85.7256372
1055,21125,Kentucky,Laurel,12.4,37.0693489,-84.1857115
1056,21127,Kentucky,Lawrence,7.8,38.05267500000001,-82.7778579
1057,21129,Kentucky,Lee,12.2,37.599443,-83.7199136
1058,21131,Kentucky,Leslie,17.0,37.0698286,-83.3789389
1059,21133,Kentucky,Letcher,12.6,37.12535099999999,-82.8640623
1060,21135,Kentucky,Lewis,8.4,38.5079686,-83.3789389
1061,21137,Kentucky,Lincoln,10.5,37.4751264,-84.6479124
1062,21139,Kentucky,Livingston,6.7,37.2978634,-84.2149339
1063,21141,Kentucky,Logan,7.7,36.869834,-86.86218269999999
1064,21143,Kentucky,Lyon,7.6,37.0247261,-88.0900762
1065,21145,Kentucky,McCracken,6.1,37.03306070000001,-88.7108964
1066,21147,Kentucky,McCreary,19.0,36.6973499,-84.4802606
1067,21149,Kentucky,McLean,8.4,37.5644352,-87.2618328
1068,21151,Kentucky,Madison,8.6,37.7143001,-84.3121264
1069,21153,Kentucky,Magoffin,12.2,37.730555,-83.03613759999999
1070,21155,Kentucky,Marion,9.2,37.3328286,-88.0811349
1071,21157,Kentucky,Marshall,7.7,36.8573767,-88.4016041
1072,21159,Kentucky,Martin,20.6,37.5728764,-82.752659
1073,21161,Kentucky,Mason,6.2,38.6194103,-83.8897057
1074,21163,Kentucky,Meade,11.5,37.9601502,-86.21584969999999
1075,21165,Kentucky,Menifee,14.7,37.9335368,-83.63484299999999
1076,21167,Kentucky,Mercer,11.5,37.8258603,-84.8984775
1077,21169,Kentucky,Metcalfe,7.4,37.0032438,-85.64348700000001
1078,21171,Kentucky,Monroe,9.5,36.7484915,-85.7256372
1079,21173,Kentucky,Montgomery,10.4,38.0314578,-83.8897057
1080,21175,Kentucky,Morgan,9.6,37.9145713,-83.2934086
1081,21177,Kentucky,Muhlenberg,10.3,37.17725009999999,-87.14228949999999
1082,21179,Kentucky,Nelson,9.8,37.7647455,-85.47880649999999
1083,21181,Kentucky,Nicholas,7.7,38.37676250000001,-84.05902900000001
1084,21183,Kentucky,Ohio,9.6,37.5108523,-86.8220341
1085,21185,Kentucky,Oldham,4.3,38.3560025,-85.47880649999999
1086,21187,Kentucky,Owen,8.6,38.4965261,-84.8150781
1087,21189,Kentucky,Owsley,8.8,37.4294933,-83.7199136
1088,21191,Kentucky,Pendleton,6.4,38.4622879,-85.3035678
1089,21193,Kentucky,Perry,13.9,37.3160706,-83.2077645
1090,21195,Kentucky,Pike,10.7,37.4842087,-82.4752757
1091,21197,Kentucky,Powell,8.3,37.8380647,-83.8260884
1092,21199,Kentucky,Pulaski,9.1,37.0853508,-84.5222189
1093,21201,Kentucky,Robertson,6.7,38.5224338,-84.0378894
1094,21203,Kentucky,Rockcastle,11.0,37.3743065,-84.3121264
1095,21205,Kentucky,Rowan,6.5,38.177068,-83.46435509999999
1096,21207,Kentucky,Russell,11.8,38.5173028,-82.6976631
1097,21209,Kentucky,Scott,6.9,38.3172361,-84.56414699999999
1098,21211,Kentucky,Shelby,5.7,38.1778076,-85.2308414
1099,21213,Kentucky,Simpson,7.0,36.7772014,-86.6207943
1100,21215,Kentucky,Spencer,6.4,38.0123167,-85.31362179999999
1101,21217,Kentucky,Taylor,9.6,37.332884,-85.31362179999999
1102,21219,Kentucky,Todd,8.5,36.8338638,-87.14228949999999
1103,21221,Kentucky,Trigg,8.4,36.8473642,-87.77633329999999
1104,21223,Kentucky,Trimble,14.6,38.6013284,-85.31362179999999
1105,21225,Kentucky,Union,7.8,38.9458951,-84.68050099999999
1106,21227,Kentucky,Warren,7.9,36.9886043,-86.49965460000001
1107,21229,Kentucky,Washington,6.1,38.6161549,-83.80849719999999
1108,21231,Kentucky,Wayne,12.6,36.7571907,-84.8567932
1109,21233,Kentucky,Webster,7.2,37.88895300000001,-86.3388635
1110,21235,Kentucky,Whitley,10.2,36.726335,-84.1857115
1111,21237,Kentucky,Wolfe,9.7,37.75508689999999,-83.46435509999999
1112,21239,Kentucky,Woodford,4.8,38.0721662,-84.7315563
1113,22001,Louisiana,Acadia,10.1,30.2297347,-92.38136209999999
1114,22003,Louisiana,Allen,8.9,31.835278,-93.288333
1115,22005,Louisiana,Ascension,6.4,30.2017295,-90.9438468
1116,22007,Louisiana,Assumption,10.3,29.9232544,-91.09693999999999
1117,22009,Louisiana,Avoyelles,9.6,30.9711824,-92.0665197
1118,22011,Louisiana,Beauregard,5.7,30.7611484,-93.33889169999999
1119,22013,Louisiana,Bienville,10.1,32.3568222,-92.98043740000001
1120,22015,Louisiana,Bossier,5.7,32.7551322,-93.66232389999999
1121,22017,Louisiana,Caddo,7.0,32.6136798,-93.86553029999999
1122,22019,Louisiana,Calcasieu,8.3,30.2089286,-93.33889169999999
1123,22021,Louisiana,Caldwell,10.2,32.0669717,-92.0665197
1124,22023,Louisiana,Cameron,6.3,29.79772119999999,-93.3251535
1125,22025,Louisiana,Catahoula,8.3,31.7053083,-91.9099238
1126,22027,Louisiana,Claiborne,13.5,32.5159779,-92.1918032
1127,22029,Louisiana,Concordia,11.7,31.4808983,-91.63721500000001
1128,22031,Louisiana,De Soto,9.3,32.0310567,-93.66232389999999
1129,22033,Louisiana,East Baton Rouge,7.6,30.5693593,-91.09693999999999
1130,22035,Louisiana,East Carroll,19.2,32.7570923,-91.2506002
1131,22037,Louisiana,East Feliciana,6.5,30.8458948,-91.02032240000001
1132,22039,Louisiana,Evangeline,10.4,30.7821781,-92.38136209999999
1133,22041,Louisiana,Franklin,11.5,29.7960399,-91.5015002
1134,22043,Louisiana,Grant,9.2,31.6943716,-92.539603
1135,22045,Louisiana,Iberia,10.6,29.4992629,-91.7538817
1136,22047,Louisiana,Iberville,7.9,30.2899179,-91.4048249
1137,22049,Louisiana,Jackson,6.9,30.8374036,-91.2176087
1138,22051,Louisiana,Jefferson,6.7,29.96603709999999,-90.1531298
1139,22053,Louisiana,Jefferson Davis,9.2,30.2672346,-92.8178291
1140,22055,Louisiana,Lafayette,6.3,30.2240897,-92.0198427
1141,22057,Louisiana,Lafourche,7.0,29.6952295,-90.52578229999999
1142,22059,Louisiana,LaSalle,6.3,31.7002461,-92.2236667
1143,22061,Louisiana,Lincoln,11.9,32.598888,-92.6983868
1144,22063,Louisiana,Livingston,7.0,30.5021345,-90.7478737
1145,22065,Louisiana,Madison,16.9,32.4401578,-91.28910359999999
1146,22067,Louisiana,Morehouse,8.0,32.796224,-91.7538817
1147,22069,Louisiana,Natchitoches,12.2,31.7607195,-93.08627489999999
1148,22071,Louisiana,Orleans,10.3,29.95106579999999,-90.0715323
1149,22073,Louisiana,Ouachita,8.0,32.4271852,-92.2236667
1150,22075,Louisiana,Plaquemines,4.7,30.2890833,-91.23427439999999
1151,22077,Louisiana,Pointe Coupee,8.3,30.6102166,-91.5983959
1152,22079,Louisiana,Rapides,8.6,31.1461104,-92.539603
1153,22081,Louisiana,Red River,9.2,32.0842949,-93.3792057
1154,22083,Louisiana,Richland,9.6,32.3887281,-91.7928402
1155,22085,Louisiana,Sabine,10.6,31.4893252,-93.5003454
1156,22087,Louisiana,St. Bernard,12.2,29.879791,-89.3226954
1157,22089,Louisiana,St. Charles,7.7,29.9273657,-90.3371889
1158,22091,Louisiana,St. Helena,14.4,30.8021866,-90.6773046
1159,22093,Louisiana,St. James,11.0,30.0179292,-90.7913227
1160,22095,Louisiana,St. John the Baptist,9.2,30.1118331,-90.4879916
1161,22097,Louisiana,St. Landry,6.1,30.6036535,-92.0665197
1162,22099,Louisiana,St. Martin,7.2,30.2395901,-91.7538817
1163,22101,Louisiana,St. Mary,12.2,29.502976,-91.44346900000001
1164,22103,Louisiana,St. Tammany,7.6,30.4357418,-89.9253233
1165,22105,Louisiana,Tangipahoa,10.7,30.8760151,-90.5120391
1166,22107,Louisiana,Tensas,15.6,32.077218,-91.28910359999999
1167,22109,Louisiana,Terrebonne,5.5,29.2299682,-90.7532809
1168,22111,Louisiana,Union,7.7,32.7859102,-92.38136209999999
1169,22113,Louisiana,Vermilion,8.5,29.8601413,-92.38136209999999
1170,22115,Louisiana,Vernon,7.5,31.1320009,-93.17796589999999
1171,22117,Louisiana,Washington,15.0,30.6163073,-92.057063
1172,22119,Louisiana,Webster,7.6,32.7641355,-93.33889169999999
1173,22121,Louisiana,West Baton Rouge,6.5,30.4751202,-91.3276422
1174,22123,Louisiana,West Carroll,11.9,32.7545792,-91.4821482
1175,22125,Louisiana,West Feliciana,8.5,30.8423123,-91.4048249
1176,22127,Louisiana,Winn,6.3,31.91961239999999,-92.6586401
1177,23001,Maine,Androscoggin,7.2,44.19124160000001,-70.17070369999999
1178,23003,Maine,Aroostook,7.5,46.819941,-68.4766064
1179,23005,Maine,Cumberland,5.4,43.796573,-70.2585205
1180,23007,Maine,Franklin,7.7,44.5874877,-68.23160539999999
1181,23009,Maine,Hancock,7.7,44.5291357,-68.2537463
1182,23011,Maine,Kennebec,7.7,44.4499153,-69.7038278
1183,23013,Maine,Knox,5.7,44.517294,-69.21337489999999
1184,23015,Maine,Lincoln,4.2,45.3622301,-68.5050006
1185,23017,Maine,Oxford,9.2,44.1317459,-70.4931557
1186,23019,Maine,Penobscot,7.8,44.4645202,-68.7111394
1187,23021,Maine,Piscataquis,10.5,45.70498569999999,-69.3375071
1188,23023,Maine,Sagadahoc,5.7,43.8171265,-69.7825531
1189,23025,Maine,Somerset,9.5,45.5913402,-69.9999212
1190,23027,Maine,Waldo,7.5,44.5125736,-69.07614830000001
1191,23029,Maine,Washington,9.8,44.2735583,-69.3676576
1192,23031,Maine,York,5.9,43.16174830000001,-70.6482581
1193,24001,Maryland,Allegany,10.0,39.6255251,-78.6114999
1194,24003,Maryland,Anne Arundel,5.9,38.9530109,-76.5488232
1195,24005,Maryland,Baltimore,6.9,39.2903848,-76.6121893
1196,24009,Maryland,Calvert,7.6,38.49495030000001,-76.5025742
1197,24011,Maryland,Caroline,8.8,38.9105018,-75.8533954
1198,24013,Maryland,Carroll,4.6,39.5423418,-77.0564464
1199,24015,Maryland,Cecil,7.5,39.5739403,-75.94632399999999
1200,24017,Maryland,Charles,6.3,38.5221781,-77.10249019999999
1201,24019,Maryland,Dorchester,10.4,38.4152819,-76.17837390000001
1202,24021,Maryland,Frederick,5.8,39.41426879999999,-77.4105409
1203,24023,Maryland,Garrett,7.0,39.5681243,-79.29021329999999
1204,24025,Maryland,Harford,6.4,39.5838964,-76.3637285
1205,24027,Maryland,Howard,4.9,39.2873463,-76.964306
1206,24029,Maryland,Kent,7.2,39.2713804,-76.1319953
1207,24031,Maryland,Montgomery,6.1,39.1547426,-77.2405153
1208,24033,Maryland,Prince George's,8.7,38.78492110000001,-76.8720961
1209,24035,Maryland,Queen Anne's,5.3,39.0263572,-76.1319953
1210,24037,Maryland,St. Mary's,4.8,38.1060259,-76.3637285
1211,24039,Maryland,Somerset,8.2,38.9659438,-77.0960893
1212,24041,Maryland,Talbot,6.7,38.7803973,-76.1319953
1213,24043,Maryland,Washington,8.5,39.641762,-77.719993
1214,24045,Maryland,Wicomico,8.8,38.3941813,-75.667356
1215,24047,Maryland,Worcester,9.9,38.1584227,-75.4344727
1216,24510,Maryland,Baltimore city,13.1,39.2903848,-76.6121893
1217,25001,Massachusetts,Barnstable,7.0,41.7003208,-70.3002024
1218,25003,Massachusetts,Berkshire,8.9,42.311782,-73.1821623
1219,25005,Massachusetts,Bristol,9.0,41.7938406,-71.1448516
1220,25007,Massachusetts,Dukes,5.2,41.4039539,-70.6692655
1221,25009,Massachusetts,Essex,7.7,42.63195820000001,-70.7829315
1222,25011,Massachusetts,Franklin,6.7,42.0834313,-71.396725
1223,25013,Massachusetts,Hampden,10.0,42.0639841,-72.4134167
1224,25015,Massachusetts,Hampshire,7.2,42.3471357,-72.6624209
1225,25017,Massachusetts,Middlesex,6.1,42.467206,-71.2874209
1226,25019,Massachusetts,Nantucket,3.0,41.2834704,-70.099451
1227,25021,Massachusetts,Norfolk,6.9,42.1195426,-71.3250563
1228,25023,Massachusetts,Plymouth,7.9,41.9584457,-70.6672621
1229,25025,Massachusetts,Suffolk,8.7,42.3522866,-71.0504229
1230,25027,Massachusetts,Worcester,7.8,42.2625932,-71.8022934
1231,26001,Michigan,Alcona,12.2,44.6727944,-83.60223979999999
1232,26003,Michigan,Alger,10.8,44.12562570000001,-84.1208666
1233,26005,Michigan,Allegan,6.1,42.5291989,-85.8553031
1234,26007,Michigan,Alpena,9.3,45.0616794,-83.4327528
1235,26009,Michigan,Antrim,9.7,44.9730441,-85.1769095
1236,26011,Michigan,Arenac,12.0,43.9973355,-83.67739279999999
1237,26013,Michigan,Baraga,8.1,46.7785433,-88.4890193
1238,26015,Michigan,Barry,7.9,42.5354321,-85.35496499999999
1239,26017,Michigan,Bay,9.7,43.7109732,-84.01674229999999
1240,26019,Michigan,Benzie,8.4,44.678277,-86.2970998
1241,26021,Michigan,Berrien,9.4,42.0320742,-86.7416374
1242,26023,Michigan,Branch,7.0,43.93497259999999,-86.1141045
1243,26025,Michigan,Calhoun,10.0,42.2073905,-85.02334599999999
1244,26027,Michigan,Cass,9.7,41.9299158,-86.0121573
1245,26029,Michigan,Charlevoix,7.8,45.3180632,-85.2584004
1246,26031,Michigan,Cheboygan,13.9,45.64695630000001,-84.4744795
1247,26033,Michigan,Chippewa,11.7,46.3117082,-84.59320939999999
1248,26035,Michigan,Clare,13.2,43.8194703,-84.7686281
1249,26037,Michigan,Clinton,6.5,42.0719866,-83.9716095
1250,26039,Michigan,Crawford,12.0,44.6524316,-84.68974949999999
1251,26041,Michigan,Delta,9.2,45.7124142,-86.98441749999999
1252,26043,Michigan,Dickinson,7.0,45.9601394,-87.8616098
1253,26045,Michigan,Eaton,7.8,42.5886496,-84.7733325
1254,26047,Michigan,Emmet,8.4,45.6418969,-84.9769067
1255,26049,Michigan,Genesee,13.2,43.0935147,-83.6135572
1256,26051,Michigan,Gladwin,11.0,43.9808549,-84.48640069999999
1257,26053,Michigan,Gogebic,9.5,46.4392785,-89.92147399999999
1258,26055,Michigan,Grand Traverse,6.6,44.687984,-85.52002399999999
1259,26057,Michigan,Gratiot,8.5,43.2836505,-84.68974949999999
1260,26059,Michigan,Hillsdale,9.0,41.9200472,-84.6305101
1261,26061,Michigan,Houghton,7.2,47.12113309999999,-88.5694182
1262,26063,Michigan,Huron,7.8,42.9708634,-82.42491419999999
1263,26065,Michigan,Ingham,9.0,42.6468943,-84.3542049
1264,26067,Michigan,Ionia,10.4,42.9872547,-85.07111739999999
1265,26069,Michigan,Iosco,12.1,44.3340462,-83.63862259999999
1266,26071,Michigan,Iron,9.0,46.2758153,-88.4902778
1267,26073,Michigan,Isabella,11.3,43.598799,-84.8567932
1268,26075,Michigan,Jackson,10.3,42.245869,-84.40134619999999
1269,26077,Michigan,Kalamazoo,9.1,42.2917069,-85.5872286
1270,26079,Michigan,Kalkaska,10.4,44.7352042,-85.18422269999999
1271,26081,Michigan,Kent,7.7,43.0097027,-85.52002399999999
1272,26083,Michigan,Keweenaw,7.0,47.7515686,-88.3249369
1273,26085,Michigan,Lake,13.2,43.4501005,-87.22201869999999
1274,26087,Michigan,Lapeer,10.5,43.0514161,-83.31883409999999
1275,26089,Michigan,Leelanau,7.1,45.0821226,-86.07336339999999
1276,26091,Michigan,Lenawee,8.6,41.8433859,-84.01674229999999
1277,26093,Michigan,Livingston,5.9,42.6207951,-83.8473015
1278,26095,Michigan,Luce,11.6,46.5827512,-85.513329
1279,26097,Michigan,Mackinac,12.5,45.8683129,-84.6275658
1280,26099,Michigan,Macomb,9.0,42.6651965,-82.92864279999999
1281,26101,Michigan,Manistee,11.5,44.2444473,-86.324253
1282,26103,Michigan,Marquette,8.1,46.5436199,-87.3953713
1283,26105,Michigan,Mason,10.7,42.5792027,-84.4435845
1284,26107,Michigan,Mecosta,12.2,43.6203054,-85.2264232
1285,26109,Michigan,Menominee,8.5,45.10776269999999,-87.6142737
1286,26111,Michigan,Midland,8.5,43.6155825,-84.2472116
1287,26113,Michigan,Missaukee,11.0,44.366621,-85.02334599999999
1288,26115,Michigan,Monroe,8.3,41.9164343,-83.3977101
1289,26117,Michigan,Montcalm,11.2,43.3057341,-85.1894045
1290,26119,Michigan,Montmorency,16.0,45.07427939999999,-84.1403141
1291,26121,Michigan,Muskegon,11.9,43.2341813,-86.24839209999999
1292,26123,Michigan,Newaygo,10.1,43.4197429,-85.80005059999999
1293,26125,Michigan,Oakland,7.5,42.59219239999999,-83.33618799999999
1294,26127,Michigan,Oceana,8.7,43.6656285,-86.6611083
1295,26129,Michigan,Ogemaw,12.4,44.3270741,-84.1857115
1296,26131,Michigan,Ontonagon,13.7,46.8710525,-89.31403019999999
1297,26133,Michigan,Osceola,10.3,43.92572790000001,-85.35496499999999
1298,26135,Michigan,Oscoda,13.2,44.42028879999999,-83.3307974
1299,26137,Michigan,Otsego,8.2,42.4605904,-85.696406
1300,26139,Michigan,Ottawa,6.1,42.95302299999999,-86.0937312
1301,26141,Michigan,Presque Isle,13.1,45.2819607,-83.46583319999999
1302,26143,Michigan,Roscommon,14.2,44.4983504,-84.5919682
1303,26145,Michigan,Saginaw,11.1,43.4194699,-83.9508068
1304,26147,Michigan,St. Clair,10.4,42.8208653,-82.486024
1305,26149,Michigan,St. Joseph,8.6,42.0938577,-86.4895463
1306,26151,Michigan,Sanilac,10.7,43.4069041,-82.7347142
1307,26153,Michigan,Schoolcraft,15.6,42.11421070000001,-85.63777759999999
1308,26155,Michigan,Shiawassee,10.3,42.949754,-84.1857115
1309,26157,Michigan,Tuscola,9.3,43.5301144,-83.5070203
1310,26159,Michigan,Van Buren,8.4,42.2203171,-83.4838244
1311,26161,Michigan,Washtenaw,7.4,42.3076493,-83.8473015
1312,26163,Michigan,Wayne,14.9,42.2814269,-83.3863214
1313,26165,Michigan,Wexford,9.5,44.387157,-85.52002399999999
1314,27001,Minnesota,Aitkin,7.3,46.5330129,-93.7102493
1315,27003,Minnesota,Anoka,6.2,45.1977428,-93.3871758
1316,27005,Minnesota,Becker,3.5,45.3936545,-93.8765076
1317,27007,Minnesota,Beltrami,10.6,47.5424684,-96.530344
1318,27009,Minnesota,Benton,6.7,45.7211058,-93.9732855
1319,27011,Minnesota,Big Stone,3.3,45.4932045,-96.4724
1320,27013,Minnesota,Blue Earth,4.9,43.6375818,-94.10239059999999
1321,27015,Minnesota,Brown,3.2,44.2294379,-94.645035
1322,27017,Minnesota,Carlton,5.4,46.6640011,-92.4248827
1323,27019,Minnesota,Carver,3.8,44.76339429999999,-93.6254404
1324,27021,Minnesota,Cass,7.4,47.2144536,-94.2309171
1325,27023,Minnesota,Chippewa,2.6,45.0520041,-95.555641
1326,27025,Minnesota,Chisago,5.5,45.524828,-92.9550305
1327,27027,Minnesota,Clay,4.3,46.878186,-96.42575889999999
1328,27029,Minnesota,Clearwater,7.4,45.4194099,-94.0488721
1329,27031,Minnesota,Cook,4.0,47.85241810000001,-92.6896184
1330,27033,Minnesota,Cottonwood,4.9,44.6088607,-95.6737122
1331,27035,Minnesota,Crow Wing,5.7,46.5957987,-94.1401699
1332,27037,Minnesota,Dakota,5.0,43.91357989999999,-91.3605035
1333,27039,Minnesota,Dodge,3.5,43.9842889,-92.8577105
1334,27041,Minnesota,Douglas,4.5,44.1080202,-92.57379460000001
1335,27043,Minnesota,Faribault,4.2,44.2949636,-93.268827
1336,27045,Minnesota,Fillmore,4.3,43.74857490000001,-92.26822039999999
1337,27047,Minnesota,Freeborn,4.9,43.76579,-93.5641078
1338,27049,Minnesota,Goodhue,5.3,44.4005221,-92.62380279999999
1339,27051,Minnesota,Grant,3.6,45.084411,-92.91049079999999
1340,27053,Minnesota,Hennepin,6.0,45.0208911,-93.5094574
1341,27055,Minnesota,Houston,4.9,43.7632995,-91.5684764
1342,27057,Minnesota,Hubbard,5.0,47.1860527,-94.94114230000001
1343,27059,Minnesota,Isanti,7.3,45.4894008,-93.24760909999999
1344,27061,Minnesota,Itasca,7.1,47.2171841,-95.2048162
1345,27063,Minnesota,Jackson,3.2,43.6207915,-94.9886022
1346,27065,Minnesota,Kanabec,9.8,45.9329034,-93.2883531
1347,27067,Minnesota,Kandiyohi,4.8,45.13194439999999,-94.93138890000002
1348,27069,Minnesota,Kittson,2.8,48.7563083,-96.865445
1349,27071,Minnesota,Koochiching,7.8,48.1816012,-93.648322
1350,27073,Minnesota,Lac qui Parle,3.7,45.0562676,-96.2006981
1351,27075,Minnesota,Lake,4.8,43.84190359999999,-93.8318949
1352,27077,Minnesota,Lake of the Woods,4.8,48.6943855,-94.92654739999999
1353,27079,Minnesota,Le Sueur,5.3,44.4598517,-93.9113634
1354,27081,Minnesota,Lincoln,2.8,46.210243,-94.6408481
1355,27083,Minnesota,Lyon,5.3,44.3981292,-95.89871389999999
1356,27085,Minnesota,McLeod,4.5,44.8440016,-94.315422
1357,27087,Minnesota,Mahnomen,9.2,47.31727490000001,-95.9655384
1358,27089,Minnesota,Marshall,4.7,44.448423,-95.79119159999999
1359,27091,Minnesota,Martin,3.5,43.6266807,-94.479976
1360,27093,Minnesota,Meeker,4.7,45.1353179,-94.5150543
1361,27095,Minnesota,Mille Lacs,7.7,45.9228403,-93.6218744
1362,27097,Minnesota,Morrison,5.8,45.9846475,-94.052545
1363,27099,Minnesota,Mower,6.5,43.6824988,-92.6983868
1364,27101,Minnesota,Murray,4.5,44.0243398,-95.81428849999999
1365,27103,Minnesota,Nicollet,4.0,44.2760774,-94.18746329999999
1366,27105,Minnesota,Nobles,6.9,43.71969319999999,-95.81428849999999
1367,27107,Minnesota,Norman,5.1,47.3416805,-96.5313092
1368,27109,Minnesota,Olmsted,4.1,43.995179,-92.38136209999999
1369,27111,Minnesota,Otter Tail,4.4,46.51894350000001,-95.8935983
1370,27113,Minnesota,Pennington,3.0,47.4835642,-94.4799692
1371,27115,Minnesota,Pine,7.4,46.0983087,-92.80707079999999
1372,27117,Minnesota,Pipestone,4.2,43.9985815,-96.3128117
1373,27119,Minnesota,Polk,4.6,47.6635085,-96.4170534
1374,27121,Minnesota,Pope,4.1,45.5472257,-95.4363717
1375,27123,Minnesota,Ramsey,7.1,45.2611,-93.45
1376,27125,Minnesota,Red Lake,3.5,47.876346,-95.0169401
1377,27127,Minnesota,Redwood,4.0,44.3516109,-95.3102505
1378,27129,Minnesota,Renville,5.0,44.7891264,-95.2116731
1379,27131,Minnesota,Rice,5.6,45.7529003,-94.2223283
1380,27133,Minnesota,Rock,3.7,43.6927003,-96.3226072
1381,27135,Minnesota,Roseau,2.7,48.8460926,-95.762766
1382,27137,Minnesota,St. Louis,6.9,47.7395106,-92.3623921
1383,27139,Minnesota,Scott,4.6,44.6834072,-93.54079089999999
1384,27141,Minnesota,Sherburne,5.2,45.4644612,-93.7298983
1385,27143,Minnesota,Sibley,5.5,44.5502089,-94.15137639999999
1386,27145,Minnesota,Stearns,5.0,45.5844792,-94.5865603
1387,27147,Minnesota,Steele,4.9,43.9758523,-93.17796589999999
1388,27149,Minnesota,Stevens,3.1,45.52151180000001,-95.95221780000001
1389,27151,Minnesota,Swift,3.9,48.8533195,-95.2213442
1390,27153,Minnesota,Todd,5.1,46.0307728,-94.8315488
1391,27155,Minnesota,Traverse,2.9,45.8030256,-96.365147
1392,27157,Minnesota,Wabasha,3.6,44.3754518,-92.0236059
1393,27159,Minnesota,Wadena,5.2,46.4424614,-95.1361386
1394,27161,Minnesota,Waseca,4.6,44.0770411,-93.50838429999999
1395,27163,Minnesota,Washington,4.8,44.8896877,-92.8577105
1396,27165,Minnesota,Watonwan,2.9,43.9323091,-94.479976
1397,27167,Minnesota,Wilkin,2.0,46.4087398,-96.5018468
1398,27169,Minnesota,Winona,6.2,44.0553908,-91.6663523
1399,27171,Minnesota,Wright,5.2,46.6715593,-93.0074403
1400,27173,Minnesota,Yellow Medicine,3.4,44.7380445,-95.8564864
1401,28001,Mississippi,Adams,11.3,31.5305353,-91.28910359999999
1402,28003,Mississippi,Alcorn,9.0,34.8984684,-88.59517509999999
1403,28005,Mississippi,Amite,12.7,31.1683803,-90.8294002
1404,28007,Mississippi,Attala,12.6,33.1683267,-89.62516459999999
1405,28009,Mississippi,Benton,17.1,32.8265223,-90.25953299999999
1406,28011,Mississippi,Bolivar,15.3,33.8829962,-90.8294002
1407,28013,Mississippi,Calhoun,10.1,33.8839218,-89.3226954
1408,28015,Mississippi,Carroll,11.9,33.5279848,-89.9253233
1409,28017,Mississippi,Chickasaw,12.2,33.8818791,-89.0179332
1410,28019,Mississippi,Choctaw,14.2,32.8294273,-89.1311937
1411,28021,Mississippi,Claiborne,17.5,31.9438205,-90.9438468
1412,28023,Mississippi,Clarke,11.7,32.077218,-88.7108964
1413,28025,Mississippi,Clay,16.2,33.65678380000001,-88.8263006
1414,28027,Mississippi,Coahoma,20.3,34.3667731,-90.52315610000001
1415,28029,Mississippi,Copiah,14.3,31.9012453,-90.37483540000001
1416,28031,Mississippi,Covington,13.7,31.6732735,-89.5874819
1417,28033,Mississippi,DeSoto,7.6,34.9065453,-89.9626799
1418,28035,Mississippi,Forrest,13.1,31.2148677,-89.28472510000002
1419,28037,Mississippi,Franklin,8.9,31.4883928,-90.86751339999999
1420,28039,Mississippi,George,9.0,30.8431226,-88.6723578
1421,28041,Mississippi,Greene,12.6,31.1646163,-88.7108964
1422,28043,Mississippi,Grenada,9.4,33.7690049,-89.8084192
1423,28045,Mississippi,Hancock,10.1,30.3887582,-89.5120084
1424,28047,Mississippi,Harrison,9.7,30.432087,-89.0179332
1425,28049,Mississippi,Hinds,10.3,32.2648353,-90.37483540000001
1426,28051,Mississippi,Holmes,19.2,33.16886600000001,-90.0746767
1427,28053,Mississippi,Humphreys,26.8,33.1677834,-90.52578229999999
1428,28055,Mississippi,Issaquena,11.6,32.8494351,-91.02032240000001
1429,28057,Mississippi,Itawamba,9.3,34.2317882,-88.4016041
1430,28059,Mississippi,Jackson,9.1,32.2987573,-90.1848103
1431,28061,Mississippi,Jasper,7.9,32.0810429,-89.1705998
1432,28063,Mississippi,Jefferson,15.9,31.7157817,-90.9820668
1433,28065,Mississippi,Jefferson Davis,12.9,31.58252809999999,-89.81303559999999
1434,28067,Mississippi,Jones,7.4,31.5343241,-89.1705998
1435,28069,Mississippi,Kemper,10.1,32.8018452,-88.7108964
1436,28071,Mississippi,Lafayette,8.4,34.4186994,-89.4742177
1437,28073,Mississippi,Lamar,8.5,34.9173149,-89.31785049999999
1438,28075,Mississippi,Lauderdale,9.6,32.5208482,-88.5117097
1439,28077,Mississippi,Lawrence,10.8,32.3251443,-89.23283939999999
1440,28079,Mississippi,Leake,10.5,32.8073509,-89.4742177
1441,28081,Mississippi,Lee,7.8,34.2354138,-88.7108964
1442,28083,Mississippi,Leflore,16.3,33.5274427,-90.37483540000001
1443,28085,Mississippi,Lincoln,7.5,31.5359248,-90.52578229999999
1444,28087,Mississippi,Lowndes,12.6,33.473423,-88.4403883
1445,28089,Mississippi,Madison,5.4,32.4618086,-90.1153638
1446,28091,Mississippi,Marion,10.4,32.4173637,-88.6478207
1447,28093,Mississippi,Marshall,8.4,34.7729491,-89.4742177
1448,28095,Mississippi,Monroe,10.9,33.8773585,-88.55653099999999
1449,28097,Mississippi,Montgomery,8.5,33.5274427,-89.62516459999999
1450,28099,Mississippi,Neshoba,9.8,32.8057157,-89.1705998
1451,28101,Mississippi,Newton,10.6,32.3212554,-89.16339289999999
1452,28103,Mississippi,Noxubee,19.0,33.1605608,-88.55653099999999
1453,28105,Mississippi,Oktibbeha,13.3,33.3886689,-88.90306
1454,28107,Mississippi,Panola,10.3,34.4198016,-89.9253233
1455,28109,Mississippi,Pearl River,12.1,32.783467,-89.22784229999999
1456,28111,Mississippi,Perry,12.9,31.1673115,-89.0179332
1457,28113,Mississippi,Pike,9.5,31.1704959,-90.37483540000001
1458,28115,Mississippi,Pontotoc,6.6,34.2478831,-88.998673
1459,28117,Mississippi,Prentiss,10.2,31.5985012,-89.8670229
1460,28119,Mississippi,Quitman,25.3,32.0401499,-88.7281
1461,28121,Mississippi,Rankin,5.4,32.2653668,-89.9253233
1462,28123,Mississippi,Scott,13.1,33.5930808,-91.0760049
1463,28125,Mississippi,Sharkey,22.1,32.9860902,-90.8294002
1464,28127,Mississippi,Simpson,10.9,31.9017736,-89.9253233
1465,28129,Mississippi,Smith,4.8,32.0826588,-89.4742177
1466,28131,Mississippi,Stone,9.7,30.8013069,-89.1705998
1467,28133,Mississippi,Sunflower,20.1,33.5428954,-90.5370327
1468,28135,Mississippi,Tallahatchie,19.0,33.9302578,-90.1869644
1469,28137,Mississippi,Tate,10.0,34.6413971,-89.9626799
1470,28139,Mississippi,Tippah,12.2,34.76880970000001,-88.86469799999999
1471,28141,Mississippi,Tishomingo,10.5,34.6367608,-88.23171029999999
1472,28143,Mississippi,Tunica,12.4,34.6845455,-90.3828769
1473,28145,Mississippi,Union,10.7,32.5715272,-89.1214478
1474,28147,Mississippi,Walthall,11.1,33.6073419,-89.27729099999999
1475,28149,Mississippi,Warren,8.0,32.3989469,-90.7913227
1476,28151,Mississippi,Washington,21.7,31.5787773,-91.29927839999999
1477,28153,Mississippi,Wayne,9.4,31.7130601,-88.7108964
1478,28155,Mississippi,Webster,11.2,33.5707456,-89.28472510000002
1479,28157,Mississippi,Wilkinson,9.7,31.1646163,-91.28910359999999
1480,28159,Mississippi,Winston,12.3,33.1650338,-89.0179332
1481,28161,Mississippi,Yalobusha,5.7,33.9768292,-89.6759101
1482,28163,Mississippi,Yazoo,19.8,32.8078912,-90.37483540000001
1483,29001,Missouri,Adair,7.9,40.1993655,-92.539603
1484,29003,Missouri,Andrew,5.0,39.9637436,-94.81059549999999
1485,29005,Missouri,Atchison,4.3,40.42389600000001,-95.4777811
1486,29007,Missouri,Audrain,8.8,39.22195300000001,-91.9099238
1487,29009,Missouri,Barry,11.4,36.6345264,-93.8248241
1488,29011,Missouri,Barton,6.5,37.4748791,-94.315422
1489,29013,Missouri,Bates,6.6,38.3216754,-94.315422
1490,29015,Missouri,Benton,10.2,37.0978279,-89.5625848
1491,29017,Missouri,Bollinger,4.0,37.2115595,-90.0746767
1492,29019,Missouri,Boone,5.0,39.0468547,-92.38136209999999
1493,29021,Missouri,Buchanan,7.5,39.6349791,-94.81059549999999
1494,29023,Missouri,Butler,9.4,38.2586347,-94.33050589999999
1495,29025,Missouri,Caldwell,5.2,39.6660775,-93.9878427
1496,29027,Missouri,Callaway,5.1,38.8886044,-91.9099238
1497,29029,Missouri,Camden,9.1,39.19723159999999,-94.02300009999999
1498,29031,Missouri,Cape Girardeau,6.3,37.3058839,-89.51814759999999
1499,29033,Missouri,Carroll,8.9,39.5166572,-93.5003454
1500,29035,Missouri,Carter,9.7,36.9073725,-90.9438468
1501,29037,Missouri,Cass,6.7,38.6574448,-94.315422
1502,29039,Missouri,Cedar,10.5,37.7031209,-93.86553029999999
1503,29041,Missouri,Chariton,3.8,39.5301517,-93.0175712
1504,29043,Missouri,Christian,6.4,36.99764400000001,-93.17796589999999
1505,29045,Missouri,Clark,4.5,39.2811499,-92.34267810000001
1506,29047,Missouri,Clay,6.1,39.3176186,-94.479976
1507,29049,Missouri,Clinton,5.8,38.3686324,-93.7782689
1508,29051,Missouri,Cole,4.9,38.5052486,-92.2630393
1509,29053,Missouri,Cooper,5.7,38.8693247,-92.8577105
1510,29055,Missouri,Crawford,12.7,38.0561057,-91.28910359999999
1511,29057,Missouri,Dade,7.9,37.48636090000001,-93.9878427
1512,29059,Missouri,Dallas,13.2,37.6853001,-93.0175712
1513,29061,Missouri,Daviess,5.7,39.9949074,-93.9878427
1514,29063,Missouri,DeKalb,6.8,39.5869398,-94.92524259999999
1515,29065,Missouri,Dent,9.2,37.544666,-91.44346900000001
1516,29067,Missouri,Douglas,9.0,36.9708648,-92.49999179999999
1517,29069,Missouri,Dunklin,8.1,36.2364268,-90.055447
1518,29071,Missouri,Franklin,7.2,39.0116954,-92.7532411
1519,29073,Missouri,Gasconade,6.1,38.669489,-91.5601667
1520,29075,Missouri,Gentry,6.3,40.3317511,-94.4204795
1521,29077,Missouri,Greene,6.8,37.3311215,-93.5003454
1522,29079,Missouri,Grundy,4.5,40.1743786,-93.5003454
1523,29081,Missouri,Harrison,5.8,40.3219529,-93.9878427
1524,29083,Missouri,Henry,7.4,38.3386592,-93.8248241
1525,29085,Missouri,Hickory,12.6,37.9747242,-93.29861059999999
1526,29087,Missouri,Holt,5.2,39.4527802,-94.3421687
1527,29089,Missouri,Howard,6.3,39.2064126,-92.6983868
1528,29091,Missouri,Howell,8.3,36.8527979,-91.9099238
1529,29093,Missouri,Iron,11.4,37.5515182,-90.6773046
1530,29095,Missouri,Jackson,7.6,37.3822732,-89.6662063
1531,29097,Missouri,Jasper,6.0,37.3361642,-94.30133599999999
1532,29099,Missouri,Jefferson,8.3,38.57670170000001,-92.1735164
1533,29101,Missouri,Johnson,8.0,38.6744747,-93.8248241
1534,29103,Missouri,Knox,7.4,40.2058437,-92.2236667
1535,29105,Missouri,Laclede,8.8,39.78557929999999,-93.1665932
1536,29107,Missouri,Lafayette,6.9,39.0031288,-93.9878427
1537,29109,Missouri,Lawrence,7.0,37.1500679,-93.8248241
1538,29111,Missouri,Lewis,5.6,40.0500853,-91.7538817
1539,29113,Missouri,Lincoln,9.5,38.3908555,-93.3346497
1540,29115,Missouri,Linn,4.5,38.4858749,-91.85045149999999
1541,29117,Missouri,Livingston,5.1,39.8464073,-93.5003454
1542,29119,Missouri,McDonald,8.7,36.617812,-94.315422
1543,29121,Missouri,Macon,8.7,39.74225610000001,-92.4726859
1544,29123,Missouri,Madison,10.2,39.4736487,-92.20989879999999
1545,29125,Missouri,Maries,10.0,38.1738674,-91.949021
1546,29127,Missouri,Marion,7.2,38.6908657,-92.3662985
1547,29129,Missouri,Mercer,4.6,40.5113975,-93.5321644
1548,29131,Missouri,Miller,8.1,37.2147751,-93.83993129999999
1549,29133,Missouri,Mississippi,12.2,37.9642529,-91.8318334
1550,29135,Missouri,Moniteau,6.7,38.5827118,-92.5792482
1551,29137,Missouri,Monroe,5.9,39.6536529,-91.7346056
1552,29139,Missouri,Montgomery,9.4,38.9365599,-91.4821482
1553,29141,Missouri,Morgan,11.7,38.3661344,-92.8577105
1554,29143,Missouri,New Madrid,8.8,36.5864488,-89.52785469999999
1555,29145,Missouri,Newton,6.1,36.9618494,-94.315422
1556,29147,Missouri,Nodaway,7.2,40.2907281,-94.81059549999999
1557,29149,Missouri,Oregon,7.1,39.9869407,-95.1449753
1558,29151,Missouri,Osage,2.9,38.08492830000001,-92.7083287
1559,29153,Missouri,Ozark,12.6,37.0208865,-93.2060163
1560,29155,Missouri,Pemiscot,11.2,36.2195399,-89.81303559999999
1561,29157,Missouri,Perry,4.2,39.43115179999999,-91.6751596
1562,29159,Missouri,Pettis,6.4,38.6893153,-93.33889169999999
1563,29161,Missouri,Phelps,7.0,37.8806538,-91.7538817
1564,29163,Missouri,Pike,6.5,39.3964742,-91.28910359999999
1565,29165,Missouri,Platte,5.6,39.34756489999999,-94.7691586
1566,29167,Missouri,Polk,9.5,37.6766686,-93.33889169999999
1567,29169,Missouri,Pulaski,12.7,37.8727481,-92.2236667
1568,29171,Missouri,Putnam,2.8,40.4744901,-92.97755579999999
1569,29173,Missouri,Ralls,6.2,39.5582351,-91.5983959
1570,29175,Missouri,Randolph,8.9,39.1577814,-94.4955088
1571,29177,Missouri,Ray,8.2,39.3354791,-93.9878427
1572,29179,Missouri,Reynolds,11.1,37.378663,-90.9820668
1573,29181,Missouri,Ripley,10.1,36.6928452,-90.8294002
1574,29183,Missouri,St. Charles,5.1,38.7881062,-90.4974359
1575,29185,Missouri,St. Clair,9.3,38.3475584,-90.9834027
1576,29186,Missouri,Ste. Genevieve,5.4,37.9786618,-90.0475582
1577,29187,Missouri,St. Francois,8.3,37.7652755,-90.4879916
1578,29189,Missouri,St. Louis,7.4,38.6270025,-90.19940419999999
1579,29195,Missouri,Saline,5.5,39.1943564,-93.17796589999999
1580,29197,Missouri,Schuyler,7.4,40.4857709,-92.49999179999999
1581,29199,Missouri,Scotland,4.0,40.4921465,-92.18432849999999
1582,29201,Missouri,Scott,6.8,37.0394443,-89.62516459999999
1583,29203,Missouri,Shannon,9.2,37.2028249,-91.44346900000001
1584,29205,Missouri,Shelby,5.8,39.8388716,-92.1057549
1585,29207,Missouri,Stoddard,9.1,36.8680558,-89.9253233
1586,29209,Missouri,Stone,10.8,36.7748882,-93.4599326
1587,29211,Missouri,Sullivan,6.0,38.2081045,-91.16042069999999
1588,29213,Missouri,Taney,9.0,36.6576378,-93.0175712
1589,29215,Missouri,Texas,8.1,37.3673645,-91.9099238
1590,29217,Missouri,Vernon,5.4,37.8148489,-94.315422
1591,29219,Missouri,Warren,8.9,38.7313284,-91.13530200000001
1592,29221,Missouri,Washington,12.2,38.55810719999999,-91.01208779999999
1593,29223,Missouri,Wayne,9.5,37.0388739,-90.52578229999999
1594,29225,Missouri,Webster,6.3,38.5925524,-90.3573389
1595,29227,Missouri,Worth,4.3,40.4049921,-94.4441257
1596,29229,Missouri,Wright,9.4,37.3555654,-92.539603
1597,29510,Missouri,St. Louis city,12.4,38.6270025,-90.19940419999999
1598,30001,Montana,Beaverhead,6.5,45.2135118,-113.1093046
1599,30003,Montana,Big Horn,19.9,45.3496574,-107.2715769
1600,30005,Montana,Blaine,13.4,48.6065395,-108.9462246
1601,30007,Montana,Broadwater,4.5,46.2693726,-111.4519716
1602,30009,Montana,Carbon,3.9,45.2820195,-109.100255
1603,30011,Montana,Carter,2.3,47.781868,-110.9575527
1604,30013,Montana,Cascade,5.1,47.2709011,-111.7008948
1605,30015,Montana,Chouteau,4.3,48.0033098,-110.4737958
1606,30017,Montana,Custer,3.8,46.12915290000001,-107.5550754
1607,30019,Montana,Daniels,2.6,48.7744137,-105.7248763
1608,30021,Montana,Dawson,2.0,47.2649012,-104.8939302
1609,30023,Montana,Deer Lodge,3.9,46.3990941,-112.7383721
1610,30025,Montana,Fallon,3.3,46.8349461,-105.1213956
1611,30027,Montana,Fergus,3.1,47.2126745,-109.4141
1612,30029,Montana,Flathead,7.0,48.424152,-114.15315
1613,30031,Montana,Gallatin,6.3,45.5388865,-111.1194231
1614,30033,Montana,Garfield,0.2,47.2662361,-107.1263146
1615,30035,Montana,Glacier,14.4,48.5217475,-112.919665
1616,30037,Montana,Golden Valley,3.5,46.3709324,-109.1743851
1617,30039,Montana,Granite,7.2,46.3174258,-113.2445049
1618,30041,Montana,Hill,4.0,48.7488096,-110.0350875
1619,30043,Montana,Jefferson,6.6,46.1450553,-112.0752952
1620,30045,Montana,Judith Basin,3.9,47.0609367,-110.2577109
1621,30047,Montana,Lake,9.9,47.671374,-114.1339242
1622,30049,Montana,Lewis and Clark,4.9,47.2963974,-112.4029787
1623,30051,Montana,Liberty,4.5,48.4917189,-110.9704148
1624,30053,Montana,Lincoln,13.1,46.9549402,-112.6817071
1625,30055,Montana,McCone,0.8,47.4500913,-105.8810734
1626,30057,Montana,Madison,4.8,45.466729,-111.8865015
1627,30059,Montana,Meagher,3.9,46.620195,-110.8848271
1628,30061,Montana,Mineral,11.8,47.1497031,-114.9626904
1629,30063,Montana,Missoula,8.2,46.8721284,-113.9940314
1630,30065,Montana,Musselshell,4.6,46.5185867,-108.0912238
1631,30067,Montana,Park,5.4,48.7596128,-113.7870225
1632,30069,Montana,Petroleum,6.6,47.1565346,-108.3203282
1633,30071,Montana,Phillips,6.3,48.4519289,-107.8777779
1634,30073,Montana,Pondera,6.0,48.2321517,-112.2886317
1635,30075,Montana,Powder River,4.5,45.2968361,-105.5346556
1636,30077,Montana,Powell,2.2,46.9311447,-112.9745473
1637,30079,Montana,Prairie,8.1,46.7980893,-105.4045355
1638,30081,Montana,Ravalli,8.2,47.2726443,-114.1730085
1639,30083,Montana,Richland,2.5,48.8201876,-106.0533679
1640,30085,Montana,Roosevelt,6.8,48.2850231,-105.1099231
1641,30087,Montana,Rosebud,10.6,46.27444240000001,-106.444746
1642,30089,Montana,Sanders,9.3,46.2913778,-107.0967228
1643,30091,Montana,Sheridan,2.7,45.4554809,-112.1969372
1644,30093,Montana,Silver Bow,7.0,45.8804293,-112.5843056
1645,30095,Montana,Stillwater,3.6,45.7001096,-109.3922403
1646,30097,Montana,Sweet Grass,0.9,48.9961099,-111.9675751
1647,30099,Montana,Teton,5.1,47.90199459999999,-112.2717561
1648,30101,Montana,Toole,3.1,48.6974247,-111.6408212
1649,30103,Montana,Treasure,0.8,46.2106667,-107.2586096
1650,30105,Montana,Valley,2.6,48.28557319999999,-106.8304776
1651,30107,Montana,Wheatland,3.4,46.4922893,-109.8418592
1652,30109,Montana,Wibaux,3.0,46.99045539999999,-104.1864623
1653,30111,Montana,Yellowstone,4.1,44.6621493,-111.1041092
1654,31001,Nebraska,Adams,5.5,40.46111080000001,-96.5094615
1655,31003,Nebraska,Antelope,1.6,42.1902446,-98.04651849999999
1656,31005,Nebraska,Arthur,4.0,41.5716538,-101.691565
1657,31007,Nebraska,Banner,5.4,41.500766,-103.6362715
1658,31009,Nebraska,Blaine,0.7,41.8795565,-99.99122539999999
1659,31011,Nebraska,Boone,1.2,41.7172326,-98.04651849999999
1660,31013,Nebraska,Box Butte,3.9,42.19114709999999,-103.0817903
1661,31015,Nebraska,Boyd,1.1,42.88237160000001,-98.70407499999999
1662,31017,Nebraska,Brown,0.7,42.5052914,-99.99122539999999
1663,31019,Nebraska,Buffalo,3.5,40.98917429999999,-99.83539379999999
1664,31021,Nebraska,Burt,3.3,41.8252059,-96.3226072
1665,31023,Nebraska,Butler,4.2,41.1375727,-97.179026
1666,31025,Nebraska,Cass,3.8,40.8755529,-96.15269850000001
1667,31027,Nebraska,Cedar,2.2,42.56103239999999,-97.179026
1668,31029,Nebraska,Chase,0.7,40.4531318,-101.6157773
1669,31031,Nebraska,Cherry,2.6,42.474114,-101.1617356
1670,31033,Nebraska,Cheyenne,1.6,41.2509264,-103.0817903
1671,31035,Nebraska,Clay,2.8,40.5975479,-98.04651849999999
1672,31037,Nebraska,Colfax,6.4,41.6268435,-97.0068393
1673,31039,Nebraska,Cuming,3.3,41.95401529999999,-96.83509989999999
1674,31041,Nebraska,Custer,2.3,41.3491322,-99.72326729999999
1675,31043,Nebraska,Dakota,7.4,42.4040965,-96.5356449
1676,31045,Nebraska,Dawes,2.6,42.6551733,-103.0817903
1677,31047,Nebraska,Dawson,4.8,40.1311123,-95.8305486
1678,31049,Nebraska,Deuel,4.3,41.1401755,-102.3005803
1679,31051,Nebraska,Dixon,4.5,42.4160469,-96.9954535
1680,31053,Nebraska,Dodge,5.1,41.7211147,-96.8828111
1681,31055,Nebraska,Douglas,5.7,40.5939437,-96.3877734
1682,31057,Nebraska,Dundy,4.0,40.13061210000001,-101.6157773
1683,31059,Nebraska,Fillmore,3.4,40.47101190000001,-97.5247243
1684,31061,Nebraska,Franklin,3.5,40.0961242,-98.9525807
1685,31063,Nebraska,Frontier,2.4,40.5744778,-100.3497895
1686,31065,Nebraska,Furnas,3.4,40.12139699999999,-99.99122539999999
1687,31067,Nebraska,Gage,4.3,40.1989041,-96.663812
1688,31069,Nebraska,Garden,3.1,41.7369721,-102.2547919
1689,31071,Nebraska,Garfield,3.5,41.9678957,-98.92453429999999
1690,31073,Nebraska,Gosper,5.1,40.4604851,-99.8124935
1691,31075,Nebraska,Grant,3.5,40.842962,-101.7251929
1692,31077,Nebraska,Greeley,1.9,41.5487118,-98.5308417
1693,31079,Nebraska,Hall,6.0,40.8817333,-98.5721016
1694,31081,Nebraska,Hamilton,2.5,40.919722,-98.04651849999999
1695,31083,Nebraska,Harlan,1.7,40.1665848,-99.456155
1696,31085,Nebraska,Hayes,1.8,40.5070797,-101.0711758
1697,31087,Nebraska,Hitchcock,3.0,40.1844599,-101.0711758
1698,31089,Nebraska,Holt,0.9,42.3803308,-98.6600586
1699,31091,Nebraska,Hooker,2.9,41.9368476,-101.0711758
1700,31093,Nebraska,Howard,4.0,41.20204349999999,-98.5721016
1701,31095,Nebraska,Jefferson,4.0,40.16807319999999,-97.179026
1702,31097,Nebraska,Johnson,3.6,40.4108337,-95.9980593
1703,31099,Nebraska,Kearney,3.8,40.69933030000001,-99.0816784
1704,31101,Nebraska,Keith,2.8,41.1815863,-101.5248055
1705,31103,Nebraska,Keya Paha,1.1,42.8461857,-99.634135
1706,31105,Nebraska,Kimball,5.1,41.23565869999999,-103.6629832
1707,31107,Nebraska,Knox,3.3,42.6712397,-97.87216
1708,31109,Nebraska,Lancaster,5.1,40.8471492,-96.663812
1709,31111,Nebraska,Lincoln,4.2,40.813616,-96.7025955
1710,31113,Nebraska,Logan,0.9,41.5155698,-100.5296115
1711,31115,Nebraska,Loup,0.7,41.275565,-98.9667532
1712,31117,Nebraska,McPherson,0.9,41.6222686,-101.0711758
1713,31119,Nebraska,Madison,3.1,41.8279842,-97.4549636
1714,31121,Nebraska,Merrick,5.2,41.2031926,-98.0028892
1715,31123,Nebraska,Morrill,4.0,41.9632981,-103.9263362
1716,31125,Nebraska,Nance,3.2,41.3995947,-98.04651849999999
1717,31127,Nebraska,Nemaha,8.0,40.3383347,-95.6730453
1718,31129,Nebraska,Nuckolls,2.9,40.110932,-98.04651849999999
1719,31131,Nebraska,Otoe,4.6,40.7236135,-96.1169524
1720,31133,Nebraska,Pawnee,4.6,40.10258169999999,-96.19513200000002
1721,31135,Nebraska,Perkins,1.7,40.7922353,-101.4339148
1722,31137,Nebraska,Phelps,1.7,40.4903536,-99.456155
1723,31139,Nebraska,Pierce,4.7,42.19917,-97.52672470000002
1724,31141,Nebraska,Platte,4.5,41.1402759,-100.7601454
1725,31143,Nebraska,Polk,1.9,41.0756468,-97.7838057
1726,31145,Nebraska,Red Willow,4.1,40.2353963,-100.5296115
1727,31147,Nebraska,Richardson,3.4,40.0898025,-95.6457951
1728,31149,Nebraska,Rock,1.7,40.0746788,-98.33033379999999
1729,31151,Nebraska,Saline,3.4,40.4930367,-97.179026
